[{"GeoLocation": "(50.775000, 6.083330)", "recclass": "L5", "name": "Aachen", "reclat": "50.775", "index": "0", "fall": "Fell", "mass": "21.0", "year": "01/01/1880 12:00:00 AM", "reclong": "6.08333"}, {"GeoLocation": "(56.183330, 10.233330)", "recclass": "H6", "name": "Aarhus", "reclat": "56.18333", "index": "1", "fall": "Fell", "mass": "720.0", "year": "01/01/1951 12:00:00 AM", "reclong": "10.23333"}, {"GeoLocation": "(54.216670, -113.000000)", "recclass": "EH4", "name": "Abee", "reclat": "54.21667", "index": "2", "fall": "Fell", "mass": "107000.0", "year": "01/01/1952 12:00:00 AM", "reclong": "-113.0"}, {"GeoLocation": "(16.883330, -99.900000)", "recclass": "Acapulcoite", "name": "Acapulco", "reclat": "16.88333", "index": "3", "fall": "Fell", "mass": "1914.0", "year": "01/01/1976 12:00:00 AM", "reclong": "-99.9"}, {"GeoLocation": "(-33.166670, -64.950000)", "recclass": "L6", "name": "Achiras", "reclat": "-33.16667", "index": "4", "fall": "Fell", "mass": "780.0", "year": "01/01/1902 12:00:00 AM", "reclong": "-64.95"}, {"GeoLocation": "(32.100000, 71.800000)", "recclass": "EH4", "name": "Adhi Kot", "reclat": "32.1", "index": "5", "fall": "Fell", "mass": "4239.0", "year": "01/01/1919 12:00:00 AM", "reclong": "71.8"}, {"GeoLocation": "(44.833330, 95.166670)", "recclass": "LL3-6", "name": "Adzhi-Bogdo (stone)", "reclat": "44.83333", "index": "6", "fall": "Fell", "mass": "910.0", "year": "01/01/1949 12:00:00 AM", "reclong": "95.16667"}, {"GeoLocation": "(44.216670, 0.616670)", "recclass": "H5", "name": "Agen", "reclat": "44.21667", "index": "7", "fall": "Fell", "mass": "30000.0", "year": "01/01/1814 12:00:00 AM", "reclong": "0.61667"}, {"GeoLocation": "(-31.600000, -65.233330)", "recclass": "L6", "name": "Aguada", "reclat": "-31.6", "index": "8", "fall": "Fell", "mass": "1620.0", "year": "01/01/1930 12:00:00 AM", "reclong": "-65.23333"}, {"GeoLocation": "(-30.866670, -64.550000)", "recclass": "L", "name": "Aguila Blanca", "reclat": "-30.86667", "index": "9", "fall": "Fell", "mass": "1440.0", "year": "01/01/1920 12:00:00 AM", "reclong": "-64.55"}, {"GeoLocation": "(16.398060, -9.570280)", "recclass": "Diogenite-pm", "name": "Aioun el Atrouss", "reclat": "16.39806", "index": "10", "fall": "Fell", "mass": "1000.0", "year": "01/01/1974 12:00:00 AM", "reclong": "-9.57028"}, {"GeoLocation": "(19.083330, 8.383330)", "recclass": "L6", "name": "A\u00efr", "reclat": "19.08333", "index": "11", "fall": "Fell", "mass": "24000.0", "year": "01/01/1925 12:00:00 AM", "reclong": "8.38333"}, {"GeoLocation": "(50.666670, 2.333330)", "recclass": "Unknown", "name": "Aire-sur-la-Lys", "reclat": "50.66667", "index": "12", "fall": "Fell", "mass": "0.0", "year": "01/01/1769 12:00:00 AM", "reclong": "2.33333"}, {"GeoLocation": "(29.516670, 35.050000)", "recclass": "L6", "name": "Akaba", "reclat": "29.51667", "index": "13", "fall": "Fell", "mass": "779.0", "year": "01/01/1949 12:00:00 AM", "reclong": "35.05"}, {"GeoLocation": "(29.716670, 77.950000)", "recclass": "H4", "name": "Akbarpur", "reclat": "29.71667", "index": "14", "fall": "Fell", "mass": "1800.0", "year": "01/01/1838 12:00:00 AM", "reclong": "77.95"}, {"GeoLocation": "(8.916670, 8.433330)", "recclass": "H", "name": "Akwanga", "reclat": "8.91667", "index": "15", "fall": "Fell", "mass": "3000.0", "year": "01/01/1959 12:00:00 AM", "reclong": "8.43333"}, {"GeoLocation": "(39.916670, 42.816670)", "recclass": "Iron, IVA", "name": "Akyumak", "reclat": "39.91667", "index": "16", "fall": "Fell", "mass": "50000.0", "year": "01/01/1981 12:00:00 AM", "reclong": "42.81667"}, {"GeoLocation": "(24.416670, 39.516670)", "recclass": "CR2-an", "name": "Al Rais", "reclat": "24.41667", "index": "17", "fall": "Fell", "mass": "160.0", "year": "01/01/1957 12:00:00 AM", "reclong": "39.51667"}, {"GeoLocation": "(13.660330, 28.960000)", "recclass": "LL5", "name": "Al Zarnkh", "reclat": "13.66033", "index": "18", "fall": "Fell", "mass": "700.0", "year": "01/01/2001 12:00:00 AM", "reclong": "28.96"}, {"GeoLocation": "(44.116670, 4.083330)", "recclass": "CI1", "name": "Alais", "reclat": "44.11667", "index": "19", "fall": "Fell", "mass": "6000.0", "year": "01/01/1806 12:00:00 AM", "reclong": "4.08333"}, {"GeoLocation": "(44.650000, 11.016670)", "recclass": "L/LL4", "name": "Albareto", "reclat": "44.65", "index": "20", "fall": "Fell", "mass": "2000.0", "year": "01/01/1766 12:00:00 AM", "reclong": "11.01667"}, {"GeoLocation": "(2.000000, 22.666670)", "recclass": "L", "name": "Alberta", "reclat": "2.0", "index": "21", "fall": "Fell", "mass": "625.0", "year": "01/01/1949 12:00:00 AM", "reclong": "22.66667"}, {"GeoLocation": "(45.821330, 6.015330)", "recclass": "Eucrite-mmict", "name": "Alby sur Ch\u00e9ran", "reclat": "45.82133", "index": "22", "fall": "Fell", "mass": "252.0", "year": "01/01/2002 12:00:00 AM", "reclong": "6.01533"}, {"GeoLocation": "(51.783330, -1.783330)", "recclass": "LL5", "name": "Aldsworth", "reclat": "51.78333", "index": "23", "fall": "Fell", "mass": "700.0", "year": "01/01/1835 12:00:00 AM", "reclong": "-1.78333"}, {"GeoLocation": "(36.233330, 37.133330)", "recclass": "L6", "name": "Aleppo", "reclat": "36.23333", "index": "24", "fall": "Fell", "mass": "3200.0", "year": "01/01/1873 12:00:00 AM", "reclong": "37.13333"}, {"GeoLocation": "(44.883330, 8.750000)", "recclass": "H5", "name": "Alessandria", "reclat": "44.88333", "index": "25", "fall": "Fell", "mass": "908.0", "year": "01/01/1860 12:00:00 AM", "reclong": "8.75"}, {"GeoLocation": "(50.950000, 31.816670)", "recclass": "H4", "name": "Alexandrovsky", "reclat": "50.95", "index": "26", "fall": "Fell", "mass": "9251.0", "year": "01/01/1900 12:00:00 AM", "reclong": "31.81667"}, {"GeoLocation": "(45.266670, 10.150000)", "recclass": "L6", "name": "Alfianello", "reclat": "45.26667", "index": "27", "fall": "Fell", "mass": "228000.0", "year": "01/01/1883 12:00:00 AM", "reclong": "10.15"}, {"GeoLocation": "(42.533330, -85.883330)", "recclass": "H5", "name": "Allegan", "reclat": "42.53333", "index": "28", "fall": "Fell", "mass": "32000.0", "year": "01/01/1899 12:00:00 AM", "reclong": "-85.88333"}, {"GeoLocation": "(26.966670, -105.316670)", "recclass": "CV3", "name": "Allende", "reclat": "26.96667", "index": "29", "fall": "Fell", "mass": "2000000.0", "year": "01/01/1969 12:00:00 AM", "reclong": "-105.31667"}, {"GeoLocation": "(20.745750, 32.412750)", "recclass": "Ureilite-an", "name": "Almahata Sitta", "reclat": "20.74575", "index": "30", "fall": "Fell", "mass": "3950.0", "year": "01/01/2008 12:00:00 AM", "reclong": "32.41275"}, {"GeoLocation": "(35.273330, 44.215560)", "recclass": "LL5", "name": "Alta'ameem", "reclat": "35.27333", "index": "31", "fall": "Fell", "mass": "6000.0", "year": "01/01/1977 12:00:00 AM", "reclong": "44.21556"}, {"GeoLocation": "(27.666670, 78.250000)", "recclass": "H5", "name": "Ambapur Nagla", "reclat": "27.66667", "index": "32", "fall": "Fell", "mass": "6400.0", "year": "01/01/1895 12:00:00 AM", "reclong": "78.25"}, {"GeoLocation": "(26.583330, 85.566670)", "recclass": "Stone-uncl", "name": "Andhara", "reclat": "26.58333", "index": "33", "fall": "Fell", "mass": "2700.0", "year": "01/01/1880 12:00:00 AM", "reclong": "85.56667"}, {"GeoLocation": "(44.616670, -70.750000)", "recclass": "L6", "name": "Andover", "reclat": "44.61667", "index": "34", "fall": "Fell", "mass": "3200.0", "year": "01/01/1898 12:00:00 AM", "reclong": "-70.75"}, {"GeoLocation": "(48.700000, 37.500000)", "recclass": "L3", "name": "Andreevka", "reclat": "48.7", "index": "35", "fall": "Fell", "mass": "600.0", "year": "01/01/1969 12:00:00 AM", "reclong": "37.5"}, {"GeoLocation": "(20.883330, 76.866670)", "recclass": "H6", "name": "Andura", "reclat": "20.88333", "index": "36", "fall": "Fell", "mass": "17900.0", "year": "01/01/1939 12:00:00 AM", "reclong": "76.86667"}, {"GeoLocation": "(0.000000, 0.000000)", "recclass": "L5", "name": "Northwest Africa 5815", "reclat": "0.0", "index": "37", "fall": "Found", "mass": "256.8", "year": "0", "reclong": "0.0"}, {"GeoLocation": "(47.466670, -0.550000)", "recclass": "L6", "name": "Angers", "reclat": "47.46667", "index": "38", "fall": "Fell", "mass": "0.0", "year": "01/01/1822 12:00:00 AM", "reclong": "-0.55"}, {"GeoLocation": "(-22.966670, -44.316670)", "recclass": "Angrite", "name": "Angra dos Reis (stone)", "reclat": "-22.96667", "index": "39", "fall": "Fell", "mass": "1500.0", "year": "01/01/1869 12:00:00 AM", "reclong": "-44.31667"}, {"GeoLocation": "(9.533330, 39.716670)", "recclass": "H4", "name": "Ankober", "reclat": "9.53333", "index": "40", "fall": "Fell", "mass": "6500.0", "year": "01/01/1942 12:00:00 AM", "reclong": "39.71667"}, {"GeoLocation": "(25.150000, 105.183330)", "recclass": "H5", "name": "Anlong", "reclat": "25.15", "index": "41", "fall": "Fell", "mass": "2500.0", "year": "01/01/1971 12:00:00 AM", "reclong": "105.18333"}, {"GeoLocation": "(40.810560, 140.785560)", "recclass": "L6", "name": "Aomori", "reclat": "40.81056", "index": "42", "fall": "Fell", "mass": "320.0", "year": "01/01/1984 12:00:00 AM", "reclong": "140.78556"}, {"GeoLocation": "(53.583330, -2.716670)", "recclass": "LL6", "name": "Appley Bridge", "reclat": "53.58333", "index": "43", "fall": "Fell", "mass": "15000.0", "year": "01/01/1914 12:00:00 AM", "reclong": "-2.71667"}, {"GeoLocation": "(43.866670, 5.383330)", "recclass": "L6", "name": "Apt", "reclat": "43.86667", "index": "44", "fall": "Fell", "mass": "3200.0", "year": "01/01/1803 12:00:00 AM", "reclong": "5.38333"}, {"GeoLocation": "(-33.000000, -66.000000)", "recclass": "H5", "name": "Arbol Solo", "reclat": "-33.0", "index": "45", "fall": "Fell", "mass": "810.0", "year": "01/01/1954 12:00:00 AM", "reclong": "-66.0"}, {"GeoLocation": "(38.500000, -94.300000)", "recclass": "H6", "name": "Archie", "reclat": "38.5", "index": "46", "fall": "Fell", "mass": "5070.0", "year": "01/01/1932 12:00:00 AM", "reclong": "-94.3"}, {"GeoLocation": "(-31.416670, -60.666670)", "recclass": "H5", "name": "Arroyo Aguiar", "reclat": "-31.41667", "index": "47", "fall": "Fell", "mass": "7450.0", "year": "01/01/1950 12:00:00 AM", "reclong": "-60.66667"}, {"GeoLocation": "(42.450000, 9.033330)", "recclass": "H6", "name": "Asco", "reclat": "42.45", "index": "48", "fall": "Fell", "mass": "41.0", "year": "01/01/1805 12:00:00 AM", "reclong": "9.03333"}, {"GeoLocation": "(31.805000, -97.010000)", "recclass": "L6", "name": "Ash Creek", "reclat": "31.805", "index": "49", "fall": "Fell", "mass": "9500.0", "year": "01/01/2009 12:00:00 AM", "reclong": "-97.01"}, {"GeoLocation": "(52.050000, 0.300000)", "recclass": "L6", "name": "Ashdon", "reclat": "52.05", "index": "50", "fall": "Fell", "mass": "1300.0", "year": "01/01/1923 12:00:00 AM", "reclong": "0.3"}, {"GeoLocation": "(43.033330, 12.550000)", "recclass": "H5", "name": "Assisi", "reclat": "43.03333", "index": "51", "fall": "Fell", "mass": "2000.0", "year": "01/01/1886 12:00:00 AM", "reclong": "12.55"}, {"GeoLocation": "(25.254170, 80.625000)", "recclass": "L4", "name": "Atarra", "reclat": "25.25417", "index": "52", "fall": "Fell", "mass": "1280.0", "year": "01/01/1920 12:00:00 AM", "reclong": "80.625"}, {"GeoLocation": "(20.066670, -103.666670)", "recclass": "L6", "name": "Atemajac", "reclat": "20.06667", "index": "53", "fall": "Fell", "mass": "94.2", "year": "01/01/1896 12:00:00 AM", "reclong": "-103.66667"}, {"GeoLocation": "(34.750000, -87.000000)", "recclass": "LL6", "name": "Athens", "reclat": "34.75", "index": "54", "fall": "Fell", "mass": "265.0", "year": "01/01/1933 12:00:00 AM", "reclong": "-87.0"}, {"GeoLocation": "(34.316670, -96.150000)", "recclass": "L6", "name": "Atoka", "reclat": "34.31667", "index": "55", "fall": "Fell", "mass": "1384.2", "year": "01/01/1945 12:00:00 AM", "reclong": "-96.15"}, {"GeoLocation": "(44.383330, 5.166670)", "recclass": "Aubrite", "name": "Aubres", "reclat": "44.38333", "index": "56", "fall": "Fell", "mass": "800.0", "year": "01/01/1836 12:00:00 AM", "reclong": "5.16667"}, {"GeoLocation": "(36.166670, 3.666670)", "recclass": "L6", "name": "Aumale", "reclat": "36.16667", "index": "57", "fall": "Fell", "mass": "50000.0", "year": "01/01/1865 12:00:00 AM", "reclong": "3.66667"}, {"GeoLocation": "(44.333330, 3.233330)", "recclass": "L6", "name": "Aumieres", "reclat": "44.33333", "index": "58", "fall": "Fell", "mass": "2000.0", "year": "01/01/1842 12:00:00 AM", "reclong": "3.23333"}, {"GeoLocation": "(43.083330, 0.583330)", "recclass": "L5", "name": "Ausson", "reclat": "43.08333", "index": "59", "fall": "Fell", "mass": "50000.0", "year": "01/01/1858 12:00:00 AM", "reclong": "0.58333"}, {"GeoLocation": "(-21.460280, -49.950830)", "recclass": "H4", "name": "Avanhandava", "reclat": "-21.46028", "index": "60", "fall": "Fell", "mass": "9330.0", "year": "01/01/1952 12:00:00 AM", "reclong": "-49.95083"}, {"GeoLocation": "(46.000000, 13.500000)", "recclass": "Iron, IIAB", "name": "Avce", "reclat": "46.0", "index": "61", "fall": "Fell", "mass": "1230.0", "year": "01/01/1908 12:00:00 AM", "reclong": "13.5"}, {"GeoLocation": "(25.000000, -103.500000)", "recclass": "H", "name": "Avilez", "reclat": "25.0", "index": "62", "fall": "Fell", "mass": "146.0", "year": "01/01/1855 12:00:00 AM", "reclong": "-103.5"}, {"GeoLocation": "(2.716670, 32.833330)", "recclass": "L4", "name": "Awere", "reclat": "2.71667", "index": "63", "fall": "Fell", "mass": "134.0", "year": "01/01/1968 12:00:00 AM", "reclong": "32.83333"}, {"GeoLocation": "(36.800000, -108.000000)", "recclass": "L6", "name": "Aztec", "reclat": "36.8", "index": "64", "fall": "Fell", "mass": "2830.0", "year": "01/01/1938 12:00:00 AM", "reclong": "-108.0"}, {"GeoLocation": "(48.600000, 38.000000)", "recclass": "L6", "name": "Bachmut", "reclat": "48.6", "index": "65", "fall": "Fell", "mass": "18000.0", "year": "01/01/1814 12:00:00 AM", "reclong": "38.0"}, {"GeoLocation": "(28.483330, 78.500000)", "recclass": "Iron, IAB-sLL", "name": "Bahjoi", "reclat": "28.48333", "index": "66", "fall": "Fell", "mass": "10322.0", "year": "01/01/1934 12:00:00 AM", "reclong": "78.5"}, {"GeoLocation": "(35.966670, -82.483330)", "recclass": "L4", "name": "Bald Mountain", "reclat": "35.96667", "index": "67", "fall": "Fell", "mass": "3700.0", "year": "01/01/1929 12:00:00 AM", "reclong": "-82.48333"}, {"GeoLocation": "(34.500000, -88.666670)", "recclass": "L6", "name": "Baldwyn", "reclat": "34.5", "index": "68", "fall": "Fell", "mass": "345.0", "year": "01/01/1922 12:00:00 AM", "reclong": "-88.66667"}, {"GeoLocation": "(5.383330, 16.383330)", "recclass": "CV3", "name": "Bali", "reclat": "5.38333", "index": "69", "fall": "Fell", "mass": "1000.0", "year": "01/01/1907 12:00:00 AM", "reclong": "16.38333"}, {"GeoLocation": "(16.666670, 101.183330)", "recclass": "Iron, ungrouped", "name": "Ban Rong Du", "reclat": "16.66667", "index": "70", "fall": "Fell", "mass": "16700.0", "year": "01/01/1993 12:00:00 AM", "reclong": "101.18333"}, {"GeoLocation": "(-6.916670, 107.600000)", "recclass": "LL6", "name": "Bandong", "reclat": "-6.91667", "index": "71", "fall": "Fell", "mass": "11500.0", "year": "01/01/1871 12:00:00 AM", "reclong": "107.6"}, {"GeoLocation": "(27.700000, 76.333330)", "recclass": "L6", "name": "Bansur", "reclat": "27.7", "index": "72", "fall": "Fell", "mass": "15000.0", "year": "01/01/1892 12:00:00 AM", "reclong": "76.33333"}, {"GeoLocation": "(30.400000, 78.200000)", "recclass": "L5", "name": "Banswal", "reclat": "30.4", "index": "73", "fall": "Fell", "mass": "14.0", "year": "01/01/1913 12:00:00 AM", "reclong": "78.2"}, {"GeoLocation": "(-6.333330, 106.000000)", "recclass": "CM2", "name": "Banten", "reclat": "-6.33333", "index": "74", "fall": "Fell", "mass": "629.0", "year": "01/01/1933 12:00:00 AM", "reclong": "106.0"}, {"GeoLocation": "(43.950000, -0.050000)", "recclass": "H5", "name": "Barbotan", "reclat": "43.95", "index": "75", "fall": "Fell", "mass": "6400.0", "year": "01/01/1790 12:00:00 AM", "reclong": "-0.05"}, {"GeoLocation": "(41.366670, 2.166670)", "recclass": "OC", "name": "Barcelona (stone)", "reclat": "41.36667", "index": "76", "fall": "Fell", "mass": "0.0", "year": "01/01/1704 12:00:00 AM", "reclong": "2.16667"}, {"GeoLocation": "(42.383330, -2.500000)", "recclass": "Mesosiderite-A1", "name": "Barea", "reclat": "42.38333", "index": "77", "fall": "Fell", "mass": "3200.0", "year": "01/01/1842 12:00:00 AM", "reclong": "-2.5"}, {"GeoLocation": "(52.733330, 84.083330)", "recclass": "H5", "name": "Barnaul", "reclat": "52.73333", "index": "78", "fall": "Fell", "mass": "23.2", "year": "01/01/1904 12:00:00 AM", "reclong": "84.08333"}, {"GeoLocation": "(52.000000, 9.100000)", "recclass": "LL4", "name": "Barntrup", "reclat": "52.0", "index": "79", "fall": "Fell", "mass": "17.0", "year": "01/01/1886 12:00:00 AM", "reclong": "9.1"}, {"GeoLocation": "(31.616670, 76.800000)", "recclass": "L6", "name": "Baroti", "reclat": "31.61667", "index": "80", "fall": "Fell", "mass": "4500.0", "year": "01/01/1910 12:00:00 AM", "reclong": "76.8"}, {"GeoLocation": "(52.565280, -1.339720)", "recclass": "L5", "name": "Barwell", "reclat": "52.56528", "index": "81", "fall": "Fell", "mass": "44000.0", "year": "01/01/1965 12:00:00 AM", "reclong": "-1.33972"}, {"GeoLocation": "(15.783330, -5.900000)", "recclass": "H5", "name": "Bassikounou", "reclat": "15.78333", "index": "82", "fall": "Fell", "mass": "29560.0", "year": "01/01/2006 12:00:00 AM", "reclong": "-5.9"}, {"GeoLocation": "(52.033330, 20.935830)", "recclass": "L5", "name": "Baszk\u00f3wka", "reclat": "52.03333", "index": "83", "fall": "Fell", "mass": "15500.0", "year": "01/01/1994 12:00:00 AM", "reclong": "20.93583"}, {"GeoLocation": "(45.416670, -98.316670)", "recclass": "H4", "name": "Bath", "reclat": "45.41667", "index": "84", "fall": "Fell", "mass": "21000.0", "year": "01/01/1892 12:00:00 AM", "reclong": "-98.31667"}, {"GeoLocation": "(38.250000, -83.750000)", "recclass": "L6", "name": "Bath Furnace", "reclat": "38.25", "index": "85", "fall": "Fell", "mass": "86000.0", "year": "01/01/1902 12:00:00 AM", "reclong": "-83.75"}, {"GeoLocation": "(40.668130, -117.189130)", "recclass": "L6", "name": "Battle Mountain", "reclat": "40.66813", "index": "86", "fall": "Fell", "mass": "2900.0", "year": "01/01/2012 12:00:00 AM", "reclong": "-117.18913"}, {"GeoLocation": "(11.083330, -0.183330)", "recclass": "LL5", "name": "Bawku", "reclat": "11.08333", "index": "87", "fall": "Fell", "mass": "1557.0", "year": "01/01/1989 12:00:00 AM", "reclong": "-0.18333"}, {"GeoLocation": "(36.750000, -93.500000)", "recclass": "L6", "name": "Baxter", "reclat": "36.75", "index": "88", "fall": "Fell", "mass": "611.0", "year": "01/01/1916 12:00:00 AM", "reclong": "-93.5"}, {"GeoLocation": "(39.800000, -101.200000)", "recclass": "H5", "name": "Beardsley", "reclat": "39.8", "index": "89", "fall": "Fell", "mass": "16000.0", "year": "01/01/1929 12:00:00 AM", "reclong": "-101.2"}, {"GeoLocation": "(51.166670, -117.333330)", "recclass": "H5", "name": "Beaver Creek", "reclat": "51.16667", "index": "90", "fall": "Fell", "mass": "14000.0", "year": "01/01/1893 12:00:00 AM", "reclong": "-117.33333"}, {"GeoLocation": "(53.016670, -4.100000)", "recclass": "H5", "name": "Beddgelert", "reclat": "53.01667", "index": "91", "fall": "Fell", "mass": "794.0", "year": "01/01/1949 12:00:00 AM", "reclong": "-4.1"}, {"GeoLocation": "(33.600000, -96.466670)", "recclass": "C2-ung", "name": "Bells", "reclat": "33.6", "index": "92", "fall": "Fell", "mass": "375.0", "year": "01/01/1961 12:00:00 AM", "reclong": "-96.46667"}, {"GeoLocation": "(-32.333330, -64.866670)", "recclass": "OC", "name": "Belville", "reclat": "-32.33333", "index": "93", "fall": "Fell", "mass": "0.0", "year": "01/01/1937 12:00:00 AM", "reclong": "-64.86667"}, {"GeoLocation": "(25.366670, 82.916670)", "recclass": "LL4", "name": "Benares (a)", "reclat": "25.36667", "index": "94", "fall": "Fell", "mass": "3700.0", "year": "01/01/1798 12:00:00 AM", "reclong": "82.91667"}, {"GeoLocation": "(32.250000, -8.150000)", "recclass": "LL6", "name": "Benguerir", "reclat": "32.25", "index": "95", "fall": "Fell", "mass": "25000.0", "year": "01/01/2004 12:00:00 AM", "reclong": "-8.15"}, {"GeoLocation": "(32.866670, 10.800000)", "recclass": "L6", "name": "Beni M'hira", "reclat": "32.86667", "index": "96", "fall": "Fell", "mass": "19000.0", "year": "01/01/2001 12:00:00 AM", "reclong": "10.8"}, {"GeoLocation": "(39.083330, -89.150000)", "recclass": "H6", "name": "Benld", "reclat": "39.08333", "index": "97", "fall": "Fell", "mass": "1770.5", "year": "01/01/1938 12:00:00 AM", "reclong": "-89.15"}, {"GeoLocation": "(-26.166670, 28.416670)", "recclass": "H6", "name": "Benoni", "reclat": "-26.16667", "index": "98", "fall": "Fell", "mass": "3880.0", "year": "01/01/1943 12:00:00 AM", "reclong": "28.41667"}, {"GeoLocation": "(30.000000, -7.000000)", "recclass": "LL6", "name": "Bensour", "reclat": "30.0", "index": "99", "fall": "Fell", "mass": "45000.0", "year": "01/01/2002 12:00:00 AM", "reclong": "-7.0"}, {"GeoLocation": "(45.950000, -67.550000)", "recclass": "LL6", "name": "Benton", "reclat": "45.95", "index": "100", "fall": "Fell", "mass": "2840.0", "year": "01/01/1949 12:00:00 AM", "reclong": "-67.55"}, {"GeoLocation": "(-31.910000, -58.328330)", "recclass": "L6", "name": "Berduc", "reclat": "-31.91", "index": "101", "fall": "Fell", "mass": "270.0", "year": "01/01/2008 12:00:00 AM", "reclong": "-58.32833"}, {"GeoLocation": "(11.650000, -3.650000)", "recclass": "Eucrite-mmict", "name": "B\u00e9r\u00e9ba", "reclat": "11.65", "index": "102", "fall": "Fell", "mass": "18000.0", "year": "01/01/1924 12:00:00 AM", "reclong": "-3.65"}, {"GeoLocation": "(41.683330, -3.800000)", "recclass": "L6", "name": "Berlanguillas", "reclat": "41.68333", "index": "103", "fall": "Fell", "mass": "1440.0", "year": "01/01/1811 12:00:00 AM", "reclong": "-3.8"}, {"GeoLocation": "(40.305830, -105.023250)", "recclass": "Eucrite-mmict", "name": "Berthoud", "reclat": "40.30583", "index": "104", "fall": "Fell", "mass": "960.0", "year": "01/01/2004 12:00:00 AM", "reclong": "-105.02325"}, {"GeoLocation": "(42.533330, -73.833330)", "recclass": "H", "name": "Bethlehem", "reclat": "42.53333", "index": "105", "fall": "Fell", "mass": "13.9", "year": "01/01/1859 12:00:00 AM", "reclong": "-73.83333"}, {"GeoLocation": "(43.216670, -0.233330)", "recclass": "L5", "name": "Beuste", "reclat": "43.21667", "index": "106", "fall": "Fell", "mass": "2000.0", "year": "01/01/1859 12:00:00 AM", "reclong": "-0.23333"}, {"GeoLocation": "(33.883330, 35.500000)", "recclass": "LL3.8", "name": "Beyrout", "reclat": "33.88333", "index": "107", "fall": "Fell", "mass": "1100.0", "year": "01/01/1921 12:00:00 AM", "reclong": "35.5"}, {"GeoLocation": "(20.883330, 74.833330)", "recclass": "L6", "name": "Bhagur", "reclat": "20.88333", "index": "108", "fall": "Fell", "mass": "18.0", "year": "01/01/1877 12:00:00 AM", "reclong": "74.83333"}, {"GeoLocation": "(26.508330, 73.115280)", "recclass": "LL6", "name": "Bhawad", "reclat": "26.50833", "index": "109", "fall": "Fell", "mass": "678.0", "year": "01/01/2002 12:00:00 AM", "reclong": "73.11528"}, {"GeoLocation": "(20.833330, 71.466670)", "recclass": "L6", "name": "Bherai", "reclat": "20.83333", "index": "110", "fall": "Fell", "mass": "100.0", "year": "01/01/1893 12:00:00 AM", "reclong": "71.46667"}, {"GeoLocation": "(22.683330, 90.650000)", "recclass": "LL3-6", "name": "Bhola", "reclat": "22.68333", "index": "111", "fall": "Fell", "mass": "1047.0", "year": "01/01/1940 12:00:00 AM", "reclong": "90.65"}, {"GeoLocation": "(22.083330, 86.900000)", "recclass": "Howardite", "name": "Bholghati", "reclat": "22.08333", "index": "112", "fall": "Fell", "mass": "2500.0", "year": "01/01/1905 12:00:00 AM", "reclong": "86.9"}, {"GeoLocation": "(53.100000, 23.200000)", "recclass": "Eucrite-pmict", "name": "Bialystok", "reclat": "53.1", "index": "113", "fall": "Fell", "mass": "4000.0", "year": "01/01/1827 12:00:00 AM", "reclong": "23.2"}, {"GeoLocation": "(50.133330, 27.166670)", "recclass": "H4", "name": "Bielokrynitschie", "reclat": "50.13333", "index": "114", "fall": "Fell", "mass": "1900.0", "year": "01/01/1887 12:00:00 AM", "reclong": "27.16667"}, {"GeoLocation": "(12.450000, -0.083330)", "recclass": "Diogenite", "name": "Bilanga", "reclat": "12.45", "index": "115", "fall": "Fell", "mass": "25000.0", "year": "01/01/1999 12:00:00 AM", "reclong": "-0.08333"}, {"GeoLocation": "(-33.156390, 115.676390)", "recclass": "H5", "name": "Binningup", "reclat": "-33.15639", "index": "116", "fall": "Fell", "mass": "488.1", "year": "01/01/1984 12:00:00 AM", "reclong": "115.67639"}, {"GeoLocation": "(13.766670, 5.300000)", "recclass": "H4", "name": "Birni N'konni", "reclat": "13.76667", "index": "117", "fall": "Fell", "mass": "560.0", "year": "01/01/1923 12:00:00 AM", "reclong": "5.3"}, {"GeoLocation": "(34.166670, -80.283330)", "recclass": "Aubrite", "name": "Bishopville", "reclat": "34.16667", "index": "118", "fall": "Fell", "mass": "6000.0", "year": "01/01/1843 12:00:00 AM", "reclong": "-80.28333"}, {"GeoLocation": "(25.383330, 82.600000)", "recclass": "LL3.15", "name": "Bishunpur", "reclat": "25.38333", "index": "119", "fall": "Fell", "mass": "1039.0", "year": "01/01/1895 12:00:00 AM", "reclong": "82.6"}, {"GeoLocation": "(49.783330, 30.166670)", "recclass": "H6", "name": "Bjelaja Zerkov", "reclat": "49.78333", "index": "120", "fall": "Fell", "mass": "1850.0", "year": "01/01/1796 12:00:00 AM", "reclong": "30.16667"}, {"GeoLocation": "(60.400000, 25.800000)", "recclass": "L/LL4", "name": "Bjurb\u00f6le", "reclat": "60.4", "index": "121", "fall": "Fell", "mass": "330000.0", "year": "01/01/1899 12:00:00 AM", "reclong": "25.8"}, {"GeoLocation": "(40.916670, -78.083330)", "recclass": "L5", "name": "Black Moshannan Park", "reclat": "40.91667", "index": "122", "fall": "Fell", "mass": "705.0", "year": "01/01/1941 12:00:00 AM", "reclong": "-78.08333"}, {"GeoLocation": "(36.833330, -97.333330)", "recclass": "L5", "name": "Blackwell", "reclat": "36.83333", "index": "123", "fall": "Fell", "mass": "2381.0", "year": "01/01/1906 12:00:00 AM", "reclong": "-97.33333"}, {"GeoLocation": "(31.833330, -98.833330)", "recclass": "L6", "name": "Blanket", "reclat": "31.83333", "index": "124", "fall": "Fell", "mass": "5100.0", "year": "01/01/1909 12:00:00 AM", "reclong": "-98.83333"}, {"GeoLocation": "(49.366670, 16.633330)", "recclass": "H6", "name": "Blansko", "reclat": "49.36667", "index": "125", "fall": "Fell", "mass": "470.0", "year": "01/01/1833 12:00:00 AM", "reclong": "16.63333"}, {"GeoLocation": "(40.480000, -89.004170)", "recclass": "LL6", "name": "Bloomington", "reclat": "40.48", "index": "126", "fall": "Fell", "mass": "67.8", "year": "01/01/1938 12:00:00 AM", "reclong": "-89.00417"}, {"GeoLocation": "(33.833330, 115.833330)", "recclass": "LL3.9", "name": "Bo Xian", "reclat": "33.83333", "index": "127", "fall": "Fell", "mass": "7500.0", "year": "01/01/1977 12:00:00 AM", "reclong": "115.83333"}, {"GeoLocation": "(23.000000, -102.000000)", "recclass": "L6", "name": "Bocas", "reclat": "23.0", "index": "128", "fall": "Fell", "mass": "56.0", "year": "01/01/1804 12:00:00 AM", "reclong": "-102.0"}, {"GeoLocation": "(12.500000, 0.700000)", "recclass": "Iron, IAB-MG", "name": "Bogou", "reclat": "12.5", "index": "129", "fall": "Fell", "mass": "8800.0", "year": "01/01/1962 12:00:00 AM", "reclong": "0.7"}, {"GeoLocation": "(44.550000, 131.633330)", "recclass": "Iron, IIAB", "name": "Boguslavka", "reclat": "44.55", "index": "130", "fall": "Fell", "mass": "256000.0", "year": "01/01/1916 12:00:00 AM", "reclong": "131.63333"}, {"GeoLocation": "(44.866670, 10.050000)", "recclass": "LL6", "name": "Borgo San Donino", "reclat": "44.86667", "index": "131", "fall": "Fell", "mass": "1676.0", "year": "01/01/1808 12:00:00 AM", "reclong": "10.05"}, {"GeoLocation": "(21.950000, 78.033330)", "recclass": "L6", "name": "Bori", "reclat": "21.95", "index": "132", "fall": "Fell", "mass": "8600.0", "year": "01/01/1894 12:00:00 AM", "reclong": "78.03333"}, {"GeoLocation": "(54.233330, 52.483330)", "recclass": "CM2", "name": "Boriskino", "reclat": "54.23333", "index": "133", "fall": "Fell", "mass": "1342.0", "year": "01/01/1930 12:00:00 AM", "reclong": "52.48333"}, {"GeoLocation": "(48.150000, 24.283330)", "recclass": "L5", "name": "Borkut", "reclat": "48.15", "index": "134", "fall": "Fell", "mass": "7000.0", "year": "01/01/1852 12:00:00 AM", "reclong": "24.28333"}, {"GeoLocation": "(55.466670, 35.866670)", "recclass": "H5", "name": "Borodino", "reclat": "55.46667", "index": "135", "fall": "Fell", "mass": "500.0", "year": "01/01/1812 12:00:00 AM", "reclong": "35.86667"}, {"GeoLocation": "(51.333330, 33.883330)", "recclass": "L4", "name": "Botschetschki", "reclat": "51.33333", "index": "136", "fall": "Fell", "mass": "614.0", "year": "01/01/1823 12:00:00 AM", "reclong": "33.88333"}, {"GeoLocation": "(17.710670, -11.371500)", "recclass": "L6", "name": "Boumdeid (2003)", "reclat": "17.71067", "index": "137", "fall": "Fell", "mass": "190.0", "year": "01/01/2003 12:00:00 AM", "reclong": "-11.3715"}, {"GeoLocation": "(17.174930, -11.341330)", "recclass": "L6", "name": "Boumdeid (2011)", "reclat": "17.17493", "index": "138", "fall": "Fell", "mass": "3599.0", "year": "01/01/2011 12:00:00 AM", "reclong": "-11.34133"}, {"GeoLocation": "(54.566670, -6.333330)", "recclass": "L3", "name": "Bovedy", "reclat": "54.56667", "index": "139", "fall": "Fell", "mass": "5460.0", "year": "01/01/1969 12:00:00 AM", "reclong": "-6.33333"}, {"GeoLocation": "(40.500000, -80.083330)", "recclass": "L", "name": "Bradford Woods", "reclat": "40.5", "index": "140", "fall": "Fell", "mass": "762.0", "year": "01/01/1886 12:00:00 AM", "reclong": "-80.08333"}, {"GeoLocation": "(50.600000, 16.300000)", "recclass": "Iron, IIAB", "name": "Braunau", "reclat": "50.6", "index": "141", "fall": "Fell", "mass": "39000.0", "year": "01/01/1847 12:00:00 AM", "reclong": "16.3"}, {"GeoLocation": "(50.666940, 8.183610)", "recclass": "H5", "name": "Breitscheid", "reclat": "50.66694", "index": "142", "fall": "Fell", "mass": "1500.0", "year": "01/01/1956 12:00:00 AM", "reclong": "8.18361"}, {"GeoLocation": "(53.400000, 9.100000)", "recclass": "H/L3.9", "name": "Bremerv\u00f6rde", "reclat": "53.4", "index": "143", "fall": "Fell", "mass": "7250.0", "year": "01/01/1855 12:00:00 AM", "reclong": "9.1"}, {"GeoLocation": "(52.133330, 59.316670)", "recclass": "Eucrite-pmict", "name": "Brient", "reclat": "52.13333", "index": "144", "fall": "Fell", "mass": "219.0", "year": "01/01/1933 12:00:00 AM", "reclong": "59.31667"}, {"GeoLocation": "(53.900000, -112.883330)", "recclass": "L6", "name": "Bruderheim", "reclat": "53.9", "index": "145", "fall": "Fell", "mass": "303000.0", "year": "01/01/1960 12:00:00 AM", "reclong": "-112.88333"}, {"GeoLocation": "(39.779780, 64.600350)", "recclass": "CV3", "name": "Bukhara", "reclat": "39.77978", "index": "146", "fall": "Fell", "mass": "5300.0", "year": "01/01/2001 12:00:00 AM", "reclong": "64.60035"}, {"GeoLocation": "0", "recclass": "Iron?", "name": "Bulls Run", "reclat": "0.0", "index": "147", "fall": "Fell", "mass": "2250.0", "year": "01/01/1964 12:00:00 AM", "reclong": "0.0"}, {"GeoLocation": "(-31.350000, 129.190000)", "recclass": "Eucrite", "name": "Bunburra Rockhole", "reclat": "-31.35", "index": "148", "fall": "Fell", "mass": "324.0", "year": "01/01/2007 12:00:00 AM", "reclong": "129.19"}, {"GeoLocation": "(10.016670, 9.583330)", "recclass": "Howardite", "name": "Bununu", "reclat": "10.01667", "index": "149", "fall": "Fell", "mass": "357.0", "year": "01/01/1942 12:00:00 AM", "reclong": "9.58333"}, {"GeoLocation": "(5.000000, 48.000000)", "recclass": "H5", "name": "Bur-Gheluai", "reclat": "5.0", "index": "150", "fall": "Fell", "mass": "120000.0", "year": "01/01/1919 12:00:00 AM", "reclong": "48.0"}, {"GeoLocation": "(37.621940, -82.237220)", "recclass": "H4-an", "name": "Burnwell", "reclat": "37.62194", "index": "151", "fall": "Fell", "mass": "1504.0", "year": "01/01/1990 12:00:00 AM", "reclong": "-82.23722"}, {"GeoLocation": "(40.200000, 29.233330)", "recclass": "L6", "name": "Bursa", "reclat": "40.2", "index": "152", "fall": "Fell", "mass": "25000.0", "year": "01/01/1946 12:00:00 AM", "reclong": "29.23333"}, {"GeoLocation": "(46.450000, 25.783330)", "recclass": "L6", "name": "Buschhof", "reclat": "46.45", "index": "153", "fall": "Fell", "mass": "5000.0", "year": "01/01/1863 12:00:00 AM", "reclong": "25.78333"}, {"GeoLocation": "(26.783330, 82.833330)", "recclass": "Aubrite", "name": "Bustee", "reclat": "26.78333", "index": "154", "fall": "Fell", "mass": "1500.0", "year": "01/01/1852 12:00:00 AM", "reclong": "82.83333"}, {"GeoLocation": "(27.083330, 84.083330)", "recclass": "H6", "name": "Butsura", "reclat": "27.08333", "index": "155", "fall": "Fell", "mass": "29000.0", "year": "01/01/1861 12:00:00 AM", "reclong": "84.08333"}, {"GeoLocation": "(52.996000, -109.848170)", "recclass": "H4", "name": "Buzzard Coulee", "reclat": "52.996", "index": "156", "fall": "Fell", "mass": "41000.0", "year": "01/01/2008 12:00:00 AM", "reclong": "-109.84817"}, {"GeoLocation": "(37.983330, -1.166670)", "recclass": "L/LL6", "name": "Cabezo de Mayo", "reclat": "37.98333", "index": "157", "fall": "Fell", "mass": "25000.0", "year": "01/01/1870 12:00:00 AM", "reclong": "-1.16667"}, {"GeoLocation": "(35.500000, -93.500000)", "recclass": "Iron, IIIAB", "name": "Cabin Creek", "reclat": "35.5", "index": "158", "fall": "Fell", "mass": "48500.0", "year": "01/01/1886 12:00:00 AM", "reclong": "-93.5"}, {"GeoLocation": "(43.838890, 20.333330)", "recclass": "OC", "name": "Cacak", "reclat": "43.83889", "index": "159", "fall": "Fell", "mass": "212.0", "year": "01/01/1919 12:00:00 AM", "reclong": "20.33333"}, {"GeoLocation": "(3.405000, -76.510000)", "recclass": "H/L4", "name": "Cali", "reclat": "3.405", "index": "160", "fall": "Fell", "mass": "478.0", "year": "01/01/2007 12:00:00 AM", "reclong": "-76.51"}, {"GeoLocation": "(11.750000, 122.333330)", "recclass": "Stone-uncl", "name": "Calivo", "reclat": "11.75", "index": "161", "fall": "Fell", "mass": "2400.0", "year": "01/01/1916 12:00:00 AM", "reclong": "122.33333"}, {"GeoLocation": "(-7.033330, -40.166670)", "recclass": "L5", "name": "Campos Sales", "reclat": "-7.03333", "index": "162", "fall": "Fell", "mass": "23680.0", "year": "01/01/1991 12:00:00 AM", "reclong": "-40.16667"}, {"GeoLocation": "(39.800000, 26.600000)", "recclass": "L6", "name": "\u00c7anakkale", "reclat": "39.8", "index": "163", "fall": "Fell", "mass": "4000.0", "year": "01/01/1964 12:00:00 AM", "reclong": "26.6"}, {"GeoLocation": "(41.250000, 1.666670)", "recclass": "H4", "name": "Ca\u00f1ellas", "reclat": "41.25", "index": "164", "fall": "Fell", "mass": "945.0", "year": "01/01/1861 12:00:00 AM", "reclong": "1.66667"}, {"GeoLocation": "(43.383330, -5.150000)", "recclass": "H5", "name": "Cangas de Onis", "reclat": "43.38333", "index": "165", "fall": "Fell", "mass": "34000.0", "year": "01/01/1866 12:00:00 AM", "reclong": "-5.15"}, {"GeoLocation": "(38.470280, -105.241390)", "recclass": "H6", "name": "Canon City", "reclat": "38.47028", "index": "166", "fall": "Fell", "mass": "1400.0", "year": "01/01/1973 12:00:00 AM", "reclong": "-105.24139"}, {"GeoLocation": "(37.266670, -89.583330)", "recclass": "H6", "name": "Cape Girardeau", "reclat": "37.26667", "index": "167", "fall": "Fell", "mass": "2300.0", "year": "01/01/1846 12:00:00 AM", "reclong": "-89.58333"}, {"GeoLocation": "(-30.883330, -64.550000)", "recclass": "H6", "name": "Capilla del Monte", "reclat": "-30.88333", "index": "168", "fall": "Fell", "mass": "750.0", "year": "01/01/1934 12:00:00 AM", "reclong": "-64.55"}, {"GeoLocation": "(-16.664440, -69.043890)", "recclass": "H4-5", "name": "Carancas", "reclat": "-16.66444", "index": "169", "fall": "Fell", "mass": "342.0", "year": "01/01/2007 12:00:00 AM", "reclong": "-69.04389"}, {"GeoLocation": "(38.500000, 27.000000)", "recclass": "LL6", "name": "Caratash", "reclat": "38.5", "index": "170", "fall": "Fell", "mass": "8.0", "year": "01/01/1902 12:00:00 AM", "reclong": "27.0"}, {"GeoLocation": "(36.083330, -78.066670)", "recclass": "H5", "name": "Castalia", "reclat": "36.08333", "index": "171", "fall": "Fell", "mass": "7300.0", "year": "01/01/1874 12:00:00 AM", "reclong": "-78.06667"}, {"GeoLocation": "(43.350000, 11.500000)", "recclass": "Stone-uncl", "name": "Castel Berardenga", "reclat": "43.35", "index": "172", "fall": "Fell", "mass": "0.0", "year": "01/01/1791 12:00:00 AM", "reclong": "11.5"}, {"GeoLocation": "(44.383330, -68.750000)", "recclass": "L6", "name": "Castine", "reclat": "44.38333", "index": "173", "fall": "Fell", "mass": "94.0", "year": "01/01/1848 12:00:00 AM", "reclong": "-68.75"}, {"GeoLocation": "(39.800000, 16.200000)", "recclass": "Stone-uncl", "name": "Castrovillari", "reclat": "39.8", "index": "174", "fall": "Fell", "mass": "15000.0", "year": "01/01/1583 12:00:00 AM", "reclong": "16.2"}, {"GeoLocation": "(36.500000, -79.250000)", "recclass": "OC", "name": "Caswell County", "reclat": "36.5", "index": "175", "fall": "Fell", "mass": "1360.0", "year": "01/01/1810 12:00:00 AM", "reclong": "-79.25"}, {"GeoLocation": "(26.466670, -105.233330)", "recclass": "L3.7", "name": "Ceniceros", "reclat": "26.46667", "index": "176", "fall": "Fell", "mass": "1025.0", "year": "01/01/1988 12:00:00 AM", "reclong": "-105.23333"}, {"GeoLocation": "(43.200000, -96.916670)", "recclass": "H5", "name": "Centerville", "reclat": "43.2", "index": "177", "fall": "Fell", "mass": "45.6", "year": "01/01/1956 12:00:00 AM", "reclong": "-96.91667"}, {"GeoLocation": "(45.083330, 8.300000)", "recclass": "H5", "name": "Cereseto", "reclat": "45.08333", "index": "178", "fall": "Fell", "mass": "6460.0", "year": "01/01/1840 12:00:00 AM", "reclong": "8.3"}, {"GeoLocation": "(28.533330, 109.316670)", "recclass": "L6", "name": "Chadong", "reclat": "28.53333", "index": "179", "fall": "Fell", "mass": "3700.0", "year": "01/01/1998 12:00:00 AM", "reclong": "109.31667"}, {"GeoLocation": "(25.366670, 81.666670)", "recclass": "H6", "name": "Chail", "reclat": "25.36667", "index": "180", "fall": "Fell", "mass": "0.5", "year": "01/01/1814 12:00:00 AM", "reclong": "81.66667"}, {"GeoLocation": "(25.850000, 83.483330)", "recclass": "LL3.4", "name": "Chainpur", "reclat": "25.85", "index": "181", "fall": "Fell", "mass": "8200.0", "year": "01/01/1907 12:00:00 AM", "reclong": "83.48333"}, {"GeoLocation": "(-30.783330, -58.050000)", "recclass": "L5", "name": "Chajari", "reclat": "-30.78333", "index": "182", "fall": "Fell", "mass": "18300.0", "year": "01/01/1933 12:00:00 AM", "reclong": "-58.05"}, {"GeoLocation": "(20.266670, 76.016670)", "recclass": "L5", "name": "Chandakapur", "reclat": "20.26667", "index": "183", "fall": "Fell", "mass": "8800.0", "year": "01/01/1838 12:00:00 AM", "reclong": "76.01667"}, {"GeoLocation": "(27.283330, 79.050000)", "recclass": "L6", "name": "Chandpur", "reclat": "27.28333", "index": "184", "fall": "Fell", "mass": "1100.0", "year": "01/01/1885 12:00:00 AM", "reclong": "79.05"}, {"GeoLocation": "(29.083330, 111.750000)", "recclass": "H5", "name": "Changde", "reclat": "29.08333", "index": "185", "fall": "Fell", "mass": "1810.0", "year": "01/01/1977 12:00:00 AM", "reclong": "111.75"}, {"GeoLocation": "(46.683330, 1.050000)", "recclass": "L6", "name": "Chantonnay", "reclat": "46.68333", "index": "186", "fall": "Fell", "mass": "31500.0", "year": "01/01/1812 12:00:00 AM", "reclong": "1.05"}, {"GeoLocation": "(36.166670, -87.333330)", "recclass": "Iron, IVA", "name": "Charlotte", "reclat": "36.16667", "index": "187", "fall": "Fell", "mass": "4300.0", "year": "01/01/1835 12:00:00 AM", "reclong": "-87.33333"}, {"GeoLocation": "(47.933330, 1.566670)", "recclass": "H6", "name": "Charsonville", "reclat": "47.93333", "index": "188", "fall": "Fell", "mass": "27000.0", "year": "01/01/1810 12:00:00 AM", "reclong": "1.56667"}, {"GeoLocation": "(29.483330, 75.500000)", "recclass": "H6", "name": "Charwallas", "reclat": "29.48333", "index": "189", "fall": "Fell", "mass": "12000.0", "year": "01/01/1834 12:00:00 AM", "reclong": "75.5"}, {"GeoLocation": "(47.716670, 5.366670)", "recclass": "Martian (chassignite)", "name": "Chassigny", "reclat": "47.71667", "index": "190", "fall": "Fell", "mass": "4000.0", "year": "01/01/1815 12:00:00 AM", "reclong": "5.36667"}, {"GeoLocation": "(47.933330, 2.916670)", "recclass": "L6", "name": "Ch\u00e2teau-Renard", "reclat": "47.93333", "index": "191", "fall": "Fell", "mass": "30000.0", "year": "01/01/1841 12:00:00 AM", "reclong": "2.91667"}, {"GeoLocation": "(41.933330, -7.466670)", "recclass": "Howardite", "name": "Chaves", "reclat": "41.93333", "index": "192", "fall": "Fell", "mass": "2945.0", "year": "01/01/1925 12:00:00 AM", "reclong": "-7.46667"}, {"GeoLocation": "(-3.666670, 32.500000)", "recclass": "H4", "name": "Chela", "reclat": "-3.66667", "index": "193", "fall": "Fell", "mass": "2936.0", "year": "01/01/1988 12:00:00 AM", "reclong": "32.5"}, {"GeoLocation": "(54.816670, 61.116670)", "recclass": "LL5", "name": "Chelyabinsk", "reclat": "54.81667", "index": "194", "fall": "Fell", "mass": "100000.0", "year": "01/01/2013 12:00:00 AM", "reclong": "61.11667"}, {"GeoLocation": "(23.696390, -5.014720)", "recclass": "H5", "name": "Chergach ", "reclat": "23.69639", "index": "195", "fall": "Fell", "mass": "100000.0", "year": "01/01/2007 12:00:00 AM", "reclong": "-5.01472"}, {"GeoLocation": "(53.700000, 30.100000)", "recclass": "H4", "name": "Chernyi Bor", "reclat": "53.7", "index": "196", "fall": "Fell", "mass": "6000.0", "year": "01/01/1964 12:00:00 AM", "reclong": "30.1"}, {"GeoLocation": "(35.033330, -81.883330)", "recclass": "LL6", "name": "Cherokee Springs", "reclat": "35.03333", "index": "197", "fall": "Fell", "mass": "8400.0", "year": "01/01/1933 12:00:00 AM", "reclong": "-81.88333"}, {"GeoLocation": "(46.550000, 6.816670)", "recclass": "L5", "name": "Chervettaz", "reclat": "46.55", "index": "198", "fall": "Fell", "mass": "705.0", "year": "01/01/1901 12:00:00 AM", "reclong": "6.81667"}, {"GeoLocation": "(50.833330, 34.000000)", "recclass": "Eucrite-mmict", "name": "Chervony Kut", "reclat": "50.83333", "index": "199", "fall": "Fell", "mass": "1700.0", "year": "01/01/1939 12:00:00 AM", "reclong": "34.0"}, {"GeoLocation": "(14.500000, 76.500000)", "recclass": "Stone-uncl", "name": "Chetrinahatti", "reclat": "14.5", "index": "200", "fall": "Fell", "mass": "72.0", "year": "01/01/1880 12:00:00 AM", "reclong": "76.5"}, {"GeoLocation": "(17.900000, 101.633330)", "recclass": "H6", "name": "Chiang Khan", "reclat": "17.9", "index": "201", "fall": "Fell", "mass": "367.0", "year": "01/01/1981 12:00:00 AM", "reclong": "101.63333"}, {"GeoLocation": "(40.933330, -79.733330)", "recclass": "LL6", "name": "Chicora", "reclat": "40.93333", "index": "202", "fall": "Fell", "mass": "303.0", "year": "01/01/1938 12:00:00 AM", "reclong": "-79.73333"}, {"GeoLocation": "(-10.059440, 33.395000)", "recclass": "Iron, IIIAB", "name": "Chisenga", "reclat": "-10.05944", "index": "203", "fall": "Fell", "mass": "3920.0", "year": "01/01/1988 12:00:00 AM", "reclong": "33.395"}, {"GeoLocation": "(-17.350000, 13.966670)", "recclass": "L6", "name": "Chitado", "reclat": "-17.35", "index": "204", "fall": "Fell", "mass": "0.0", "year": "01/01/1966 12:00:00 AM", "reclong": "13.96667"}, {"GeoLocation": "(47.470830, 0.976670)", "recclass": "L6", "name": "Chitenay", "reclat": "47.47083", "index": "205", "fall": "Fell", "mass": "4000.0", "year": "01/01/1978 12:00:00 AM", "reclong": "0.97667"}, {"GeoLocation": "(-6.950000, 108.100000)", "recclass": "L5", "name": "Cilimus", "reclat": "-6.95", "index": "206", "fall": "Fell", "mass": "1600.0", "year": "01/01/1979 12:00:00 AM", "reclong": "108.1"}, {"GeoLocation": "(32.102500, -81.872780)", "recclass": "L6", "name": "Claxton", "reclat": "32.1025", "index": "207", "fall": "Fell", "mass": "1455.0", "year": "01/01/1984 12:00:00 AM", "reclong": "-81.87278"}, {"GeoLocation": "0", "recclass": "L4", "name": "Clohars", "reclat": "0.0", "index": "208", "fall": "Fell", "mass": "48.6", "year": "01/01/1822 12:00:00 AM", "reclong": "0.0"}, {"GeoLocation": "(44.900000, -90.283330)", "recclass": "L6", "name": "Colby (Wisconsin)", "reclat": "44.9", "index": "209", "fall": "Fell", "mass": "104000.0", "year": "01/01/1917 12:00:00 AM", "reclong": "-90.28333"}, {"GeoLocation": "(-33.133330, 19.383330)", "recclass": "CM2", "name": "Cold Bokkeveld", "reclat": "-33.13333", "index": "210", "fall": "Fell", "mass": "5200.0", "year": "01/01/1838 12:00:00 AM", "reclong": "19.38333"}, {"GeoLocation": "(43.761110, -84.507780)", "recclass": "L6", "name": "Coleman", "reclat": "43.76111", "index": "211", "fall": "Fell", "mass": "469.0", "year": "01/01/1994 12:00:00 AM", "reclong": "-84.50778"}, {"GeoLocation": "(42.533330, 12.616670)", "recclass": "H5", "name": "Collescipoli", "reclat": "42.53333", "index": "212", "fall": "Fell", "mass": "5000.0", "year": "01/01/1890 12:00:00 AM", "reclong": "12.61667"}, {"GeoLocation": "(-19.850000, -47.550000)", "recclass": "H4", "name": "Conquista", "reclat": "-19.85", "index": "213", "fall": "Fell", "mass": "20350.0", "year": "01/01/1965 12:00:00 AM", "reclong": "-47.55"}, {"GeoLocation": "(21.166670, -100.866670)", "recclass": "H5", "name": "Cosina", "reclat": "21.16667", "index": "214", "fall": "Fell", "mass": "1200.0", "year": "01/01/1844 12:00:00 AM", "reclong": "-100.86667"}, {"GeoLocation": "(10.200000, 76.266670)", "recclass": "L6", "name": "Cranganore", "reclat": "10.2", "index": "215", "fall": "Fell", "mass": "1460.0", "year": "01/01/1917 12:00:00 AM", "reclong": "76.26667"}, {"GeoLocation": "(35.950000, -97.583330)", "recclass": "CM2", "name": "Crescent", "reclat": "35.95", "index": "216", "fall": "Fell", "mass": "78.4", "year": "01/01/1936 12:00:00 AM", "reclong": "-97.58333"}, {"GeoLocation": "(-27.700000, 27.300000)", "recclass": "H5", "name": "Cronstad", "reclat": "-27.7", "index": "217", "fall": "Fell", "mass": "3650.0", "year": "01/01/1877 12:00:00 AM", "reclong": "27.3"}, {"GeoLocation": "(35.633330, -78.133330)", "recclass": "H5", "name": "Cross Roads", "reclat": "35.63333", "index": "218", "fall": "Fell", "mass": "167.0", "year": "01/01/1892 12:00:00 AM", "reclong": "-78.13333"}, {"GeoLocation": "(54.616670, -6.216670)", "recclass": "L5", "name": "Crumlin", "reclat": "54.61667", "index": "219", "fall": "Fell", "mass": "4255.0", "year": "01/01/1902 12:00:00 AM", "reclong": "-6.21667"}, {"GeoLocation": "(36.833330, -84.350000)", "recclass": "Aubrite", "name": "Cumberland Falls", "reclat": "36.83333", "index": "220", "fall": "Fell", "mass": "17000.0", "year": "01/01/1919 12:00:00 AM", "reclong": "-84.35"}, {"GeoLocation": "(38.400000, -84.250000)", "recclass": "L/LL4", "name": "Cynthiana", "reclat": "38.4", "index": "221", "fall": "Fell", "mass": "6000.0", "year": "01/01/1877 12:00:00 AM", "reclong": "-84.25"}, {"GeoLocation": "(35.616670, 8.833330)", "recclass": "LL6", "name": "Dahmani", "reclat": "35.61667", "index": "222", "fall": "Fell", "mass": "18000.0", "year": "01/01/1981 12:00:00 AM", "reclong": "8.83333"}, {"GeoLocation": "(26.916670, 83.966670)", "recclass": "L6", "name": "Dandapur", "reclat": "26.91667", "index": "223", "fall": "Fell", "mass": "5650.0", "year": "01/01/1878 12:00:00 AM", "reclong": "83.96667"}, {"GeoLocation": "(-28.200000, 24.566670)", "recclass": "EL6", "name": "Daniel's Kuil", "reclat": "-28.2", "index": "224", "fall": "Fell", "mass": "1064.0", "year": "01/01/1868 12:00:00 AM", "reclong": "24.56667"}, {"GeoLocation": "(34.400000, -87.066670)", "recclass": "L6", "name": "Danville", "reclat": "34.4", "index": "225", "fall": "Fell", "mass": "2000.0", "year": "01/01/1868 12:00:00 AM", "reclong": "-87.06667"}, {"GeoLocation": "(49.866670, 8.650000)", "recclass": "H5", "name": "Darmstadt", "reclat": "49.86667", "index": "226", "fall": "Fell", "mass": "100.0", "year": "01/01/1804 12:00:00 AM", "reclong": "8.65"}, {"GeoLocation": "(41.984440, 59.685000)", "recclass": "H5", "name": "Dashoguz", "reclat": "41.98444", "index": "227", "fall": "Fell", "mass": "7000.0", "year": "01/01/1998 12:00:00 AM", "reclong": "59.685"}, {"GeoLocation": "(-1.870890, -79.957560)", "recclass": "L5", "name": "Daule", "reclat": "-1.87089", "index": "228", "fall": "Fell", "mass": "6580.0", "year": "01/01/2008 12:00:00 AM", "reclong": "-79.95756"}, {"GeoLocation": "(43.000000, -80.000000)", "recclass": "H6", "name": "De Cewsville", "reclat": "43.0", "index": "229", "fall": "Fell", "mass": "340.0", "year": "01/01/1887 12:00:00 AM", "reclong": "-80.0"}, {"GeoLocation": "(40.250000, -74.000000)", "recclass": "L6", "name": "Deal", "reclat": "40.25", "index": "230", "fall": "Fell", "mass": "28.0", "year": "01/01/1829 12:00:00 AM", "reclong": "-74.0"}, {"GeoLocation": "(28.566670, 77.250000)", "recclass": "L5", "name": "Delhi", "reclat": "28.56667", "index": "231", "fall": "Fell", "mass": "0.8", "year": "01/01/1897 12:00:00 AM", "reclong": "77.25"}, {"GeoLocation": "(51.466670, 84.766670)", "recclass": "L6", "name": "Demina", "reclat": "51.46667", "index": "232", "fall": "Fell", "mass": "16400.0", "year": "01/01/1911 12:00:00 AM", "reclong": "84.76667"}, {"GeoLocation": "(39.782500, -104.930560)", "recclass": "L6", "name": "Denver", "reclat": "39.7825", "index": "233", "fall": "Fell", "mass": "230.0", "year": "01/01/1967 12:00:00 AM", "reclong": "-104.93056"}, {"GeoLocation": "(26.683330, 93.866670)", "recclass": "H5", "name": "Dergaon", "reclat": "26.68333", "index": "234", "fall": "Fell", "mass": "12500.0", "year": "01/01/2001 12:00:00 AM", "reclong": "93.86667"}, {"GeoLocation": "(25.733330, 73.616670)", "recclass": "H6", "name": "Desuri", "reclat": "25.73333", "index": "235", "fall": "Fell", "mass": "25400.0", "year": "01/01/1962 12:00:00 AM", "reclong": "73.61667"}, {"GeoLocation": "(19.000000, 81.000000)", "recclass": "H3.8", "name": "Devgaon", "reclat": "19.0", "index": "236", "fall": "Fell", "mass": "12000.0", "year": "01/01/2001 12:00:00 AM", "reclong": "81.0"}, {"GeoLocation": "(24.225000, 76.525000)", "recclass": "L6", "name": "Devri-Khera", "reclat": "24.225", "index": "237", "fall": "Fell", "mass": "1140.0", "year": "01/01/1994 12:00:00 AM", "reclong": "76.525"}, {"GeoLocation": "(22.377780, 71.427220)", "recclass": "H3.8", "name": "Dhajala", "reclat": "22.37778", "index": "238", "fall": "Fell", "mass": "45000.0", "year": "01/01/1976 12:00:00 AM", "reclong": "71.42722"}, {"GeoLocation": "(14.883330, 75.600000)", "recclass": "OC", "name": "Dharwar", "reclat": "14.88333", "index": "239", "fall": "Fell", "mass": "1800.0", "year": "01/01/1848 12:00:00 AM", "reclong": "75.6"}, {"GeoLocation": "(32.233330, 76.466670)", "recclass": "LL6", "name": "Dhurmsala", "reclat": "32.23333", "index": "240", "fall": "Fell", "mass": "32000.0", "year": "01/01/1860 12:00:00 AM", "reclong": "76.46667"}, {"GeoLocation": "(37.351720, 27.329970)", "recclass": "H3-5", "name": "Didim", "reclat": "37.35172", "index": "241", "fall": "Fell", "mass": "3396.0", "year": "01/01/2007 12:00:00 AM", "reclong": "27.32997"}, {"GeoLocation": "(-33.750000, 18.566670)", "recclass": "L6", "name": "Diep River", "reclat": "-33.75", "index": "242", "fall": "Fell", "mass": "1000.0", "year": "01/01/1906 12:00:00 AM", "reclong": "18.56667"}, {"GeoLocation": "(-31.883330, -60.466670)", "recclass": "H4", "name": "Distrito Quebracho", "reclat": "-31.88333", "index": "243", "fall": "Fell", "mass": "400.0", "year": "01/01/1957 12:00:00 AM", "reclong": "-60.46667"}, {"GeoLocation": "(-7.500000, 111.500000)", "recclass": "H6", "name": "Djati-Pengilon", "reclat": "-7.5", "index": "244", "fall": "Fell", "mass": "166000.0", "year": "01/01/1884 12:00:00 AM", "reclong": "111.5"}, {"GeoLocation": "(12.733330, 15.050000)", "recclass": "H", "name": "Djermaia", "reclat": "12.73333", "index": "245", "fall": "Fell", "mass": "3950.0", "year": "01/01/1961 12:00:00 AM", "reclong": "15.05"}, {"GeoLocation": "(36.950000, 9.550000)", "recclass": "H5-6", "name": "Djoumine", "reclat": "36.95", "index": "246", "fall": "Fell", "mass": "10000.0", "year": "01/01/1999 12:00:00 AM", "reclong": "9.55"}, {"GeoLocation": "(23.500000, 90.333330)", "recclass": "H5", "name": "Dokachi", "reclat": "23.5", "index": "247", "fall": "Fell", "mass": "3840.0", "year": "01/01/1903 12:00:00 AM", "reclong": "90.33333"}, {"GeoLocation": "(50.750000, 25.300000)", "recclass": "L6", "name": "Dolgovoli", "reclat": "50.75", "index": "248", "fall": "Fell", "mass": "1600.0", "year": "01/01/1864 12:00:00 AM", "reclong": "25.3"}, {"GeoLocation": "(40.000000, 29.000000)", "recclass": "L5", "name": "Domanitch", "reclat": "40.0", "index": "249", "fall": "Fell", "mass": "438.0", "year": "01/01/1907 12:00:00 AM", "reclong": "29.0"}, {"GeoLocation": "(45.500000, 119.033330)", "recclass": "Mesosiderite", "name": "Dong Ujimqin Qi", "reclat": "45.5", "index": "250", "fall": "Fell", "mass": "128800.0", "year": "01/01/1995 12:00:00 AM", "reclong": "119.03333"}, {"GeoLocation": "(21.866670, 82.450000)", "recclass": "H6", "name": "Donga Kohrod", "reclat": "21.86667", "index": "251", "fall": "Fell", "mass": "230.0", "year": "01/01/1899 12:00:00 AM", "reclong": "82.45"}, {"GeoLocation": "(32.916670, 120.783330)", "recclass": "LL6", "name": "Dongtai", "reclat": "32.91667", "index": "252", "fall": "Fell", "mass": "5500.0", "year": "01/01/1970 12:00:00 AM", "reclong": "120.78333"}, {"GeoLocation": "(51.200000, 112.300000)", "recclass": "H5-7", "name": "Doroninsk", "reclat": "51.2", "index": "253", "fall": "Fell", "mass": "3891.0", "year": "01/01/1805 12:00:00 AM", "reclong": "112.3"}, {"GeoLocation": "(13.050000, 3.166670)", "recclass": "L6", "name": "Dosso", "reclat": "13.05", "index": "254", "fall": "Fell", "mass": "1250.0", "year": "01/01/1962 12:00:00 AM", "reclong": "3.16667"}, {"GeoLocation": "(32.333330, -6.300000)", "recclass": "LL6", "name": "Douar Mghila", "reclat": "32.33333", "index": "255", "fall": "Fell", "mass": "1161.0", "year": "01/01/1932 12:00:00 AM", "reclong": "-6.3"}, {"GeoLocation": "(-13.666670, 33.916670)", "recclass": "Stone-uncl", "name": "Dowa", "reclat": "-13.66667", "index": "256", "fall": "Fell", "mass": "642.0", "year": "01/01/1976 12:00:00 AM", "reclong": "33.91667"}, {"GeoLocation": "(36.400000, -86.500000)", "recclass": "L6", "name": "Drake Creek", "reclat": "36.4", "index": "257", "fall": "Fell", "mass": "5000.0", "year": "01/01/1827 12:00:00 AM", "reclong": "-86.5"}, {"GeoLocation": "(42.520000, -82.260000)", "recclass": "H6", "name": "Dresden (Ontario)", "reclat": "42.52", "index": "258", "fall": "Fell", "mass": "47700.0", "year": "01/01/1939 12:00:00 AM", "reclong": "-82.26"}, {"GeoLocation": "(42.458330, 18.441670)", "recclass": "L3-6", "name": "Dubrovnik", "reclat": "42.45833", "index": "259", "fall": "Fell", "mass": "1900.0", "year": "01/01/1951 12:00:00 AM", "reclong": "18.44167"}, {"GeoLocation": "(-31.666670, 152.833330)", "recclass": "L6", "name": "Dunbogan", "reclat": "-31.66667", "index": "260", "fall": "Fell", "mass": "30.0", "year": "01/01/1999 12:00:00 AM", "reclong": "152.83333"}, {"GeoLocation": "(52.550000, -8.033330)", "recclass": "H5", "name": "Dundrum", "reclat": "52.55", "index": "261", "fall": "Fell", "mass": "2270.0", "year": "01/01/1865 12:00:00 AM", "reclong": "-8.03333"}, {"GeoLocation": "(43.333330, 128.250000)", "recclass": "Stone-uncl", "name": "Dunhua", "reclat": "43.33333", "index": "262", "fall": "Fell", "mass": "0.0", "year": "01/01/1976 12:00:00 AM", "reclong": "128.25"}, {"GeoLocation": "(30.300000, 76.633330)", "recclass": "L6", "name": "Durala", "reclat": "30.3", "index": "263", "fall": "Fell", "mass": "13200.0", "year": "01/01/1815 12:00:00 AM", "reclong": "76.63333"}, {"GeoLocation": "(-4.000000, 39.500000)", "recclass": "L6", "name": "Duruma", "reclat": "-4.0", "index": "264", "fall": "Fell", "mass": "577.0", "year": "01/01/1853 12:00:00 AM", "reclong": "39.5"}, {"GeoLocation": "(33.433330, 127.266670)", "recclass": "L6", "name": "Duwun", "reclat": "33.43333", "index": "265", "fall": "Fell", "mass": "2117.0", "year": "01/01/1943 12:00:00 AM", "reclong": "127.26667"}, {"GeoLocation": "(-27.200000, 31.316670)", "recclass": "H4-6", "name": "Dwaleni", "reclat": "-27.2", "index": "266", "fall": "Fell", "mass": "3230.0", "year": "01/01/1970 12:00:00 AM", "reclong": "31.31667"}, {"GeoLocation": "(26.250000, 82.000000)", "recclass": "Ureilite", "name": "Dyalpur", "reclat": "26.25", "index": "267", "fall": "Fell", "mass": "300.0", "year": "01/01/1872 12:00:00 AM", "reclong": "82.0"}, {"GeoLocation": "(-3.000000, 151.000000)", "recclass": "Mesosiderite-A1", "name": "Dyarrl Island", "reclat": "-3.0", "index": "268", "fall": "Fell", "mass": "188.0", "year": "01/01/1933 12:00:00 AM", "reclong": "151.0"}, {"GeoLocation": "(40.781670, -96.471670)", "recclass": "EL6", "name": "Eagle", "reclat": "40.78167", "index": "269", "fall": "Fell", "mass": "10000.0", "year": "01/01/1947 12:00:00 AM", "reclong": "-96.47167"}, {"GeoLocation": "(-17.300000, 15.833330)", "recclass": "H5", "name": "Ehole", "reclat": "-17.3", "index": "270", "fall": "Fell", "mass": "2400.0", "year": "01/01/1961 12:00:00 AM", "reclong": "15.83333"}, {"GeoLocation": "(48.900000, 11.216670)", "recclass": "H5", "name": "Eichst\u00e4dt", "reclat": "48.9", "index": "271", "fall": "Fell", "mass": "3000.0", "year": "01/01/1785 12:00:00 AM", "reclong": "11.21667"}, {"GeoLocation": "(56.033330, 13.000000)", "recclass": "H4", "name": "Ekeby", "reclat": "56.03333", "index": "272", "fall": "Fell", "mass": "3336.0", "year": "01/01/1939 12:00:00 AM", "reclong": "13.0"}, {"GeoLocation": "(28.266670, 78.783330)", "recclass": "H6", "name": "Ekh Khera", "reclat": "28.26667", "index": "273", "fall": "Fell", "mass": "840.0", "year": "01/01/1916 12:00:00 AM", "reclong": "78.78333"}, {"GeoLocation": "(34.416670, 3.250000)", "recclass": "L6", "name": "El Idrissia", "reclat": "34.41667", "index": "274", "fall": "Fell", "mass": "10000.0", "year": "01/01/1989 12:00:00 AM", "reclong": "3.25"}, {"GeoLocation": "(25.370000, -97.370000)", "recclass": "H5", "name": "El Paso de Aguila", "reclat": "25.37", "index": "275", "fall": "Fell", "mass": "17226.0", "year": "01/01/1977 12:00:00 AM", "reclong": "-97.37"}, {"GeoLocation": "(19.967220, -103.051670)", "recclass": "L6", "name": "El Tigre", "reclat": "19.96722", "index": "276", "fall": "Fell", "mass": "5000.0", "year": "01/01/1993 12:00:00 AM", "reclong": "-103.05167"}, {"GeoLocation": "(39.246670, -104.588170)", "recclass": "LL6", "name": "Elbert", "reclat": "39.24667", "index": "277", "fall": "Fell", "mass": "680.5", "year": "01/01/1998 12:00:00 AM", "reclong": "-104.58817"}, {"GeoLocation": "(50.183330, 12.733330)", "recclass": "Iron, IID", "name": "Elbogen", "reclat": "50.18333", "index": "278", "fall": "Fell", "mass": "107000.0", "year": "12/24/1399 12:00:00 AM", "reclong": "12.73333"}, {"GeoLocation": "(47.833330, 37.666670)", "recclass": "L5", "name": "Elenovka", "reclat": "47.83333", "index": "279", "fall": "Fell", "mass": "54640.0", "year": "01/01/1951 12:00:00 AM", "reclong": "37.66667"}, {"GeoLocation": "(51.750000, 4.000000)", "recclass": "Diogenite", "name": "Ellemeet", "reclat": "51.75", "index": "280", "fall": "Fell", "mass": "1470.0", "year": "01/01/1925 12:00:00 AM", "reclong": "4.0"}, {"GeoLocation": "(-29.466670, 151.616670)", "recclass": "Eucrite-mmict", "name": "Emmaville", "reclat": "-29.46667", "index": "281", "fall": "Fell", "mass": "127.0", "year": "01/01/1900 12:00:00 AM", "reclong": "151.61667"}, {"GeoLocation": "(30.300000, 109.500000)", "recclass": "H5", "name": "Enshi", "reclat": "30.3", "index": "282", "fall": "Fell", "mass": "8000.0", "year": "01/01/1974 12:00:00 AM", "reclong": "109.5"}, {"GeoLocation": "(47.866670, 7.350000)", "recclass": "LL6", "name": "Ensisheim", "reclat": "47.86667", "index": "283", "fall": "Fell", "mass": "127000.0", "year": "12/23/1491 12:00:00 AM", "reclong": "7.35"}, {"GeoLocation": "(48.183330, 6.466670)", "recclass": "H5", "name": "\u00c9pinal", "reclat": "48.18333", "index": "284", "fall": "Fell", "mass": "277.0", "year": "01/01/1822 12:00:00 AM", "reclong": "6.46667"}, {"GeoLocation": "(19.033330, 81.891670)", "recclass": "CM2", "name": "Erakot", "reclat": "19.03333", "index": "285", "fall": "Fell", "mass": "113.0", "year": "01/01/1940 12:00:00 AM", "reclong": "81.89167"}, {"GeoLocation": "(40.300000, 44.500000)", "recclass": "Howardite", "name": "Erevan", "reclat": "40.3", "index": "286", "fall": "Fell", "mass": "107.2", "year": "01/01/1911 12:00:00 AM", "reclong": "44.5"}, {"GeoLocation": "(1.166670, 44.166670)", "recclass": "L5", "name": "Ergheo", "reclat": "1.16667", "index": "287", "fall": "Fell", "mass": "20000.0", "year": "01/01/1889 12:00:00 AM", "reclong": "44.16667"}, {"GeoLocation": "(52.216670, 11.250000)", "recclass": "H6", "name": "Erxleben", "reclat": "52.21667", "index": "288", "fall": "Fell", "mass": "2250.0", "year": "01/01/1812 12:00:00 AM", "reclong": "11.25"}, {"GeoLocation": "(46.250000, -1.100000)", "recclass": "L6", "name": "Esnandes", "reclat": "46.25", "index": "289", "fall": "Fell", "mass": "1500.0", "year": "01/01/1837 12:00:00 AM", "reclong": "-1.1"}, {"GeoLocation": "(2.883330, 30.833330)", "recclass": "C2-ung", "name": "Essebi", "reclat": "2.88333", "index": "290", "fall": "Fell", "mass": "500.0", "year": "01/01/1957 12:00:00 AM", "reclong": "30.83333"}, {"GeoLocation": "(43.416670, -94.833330)", "recclass": "Mesosiderite-A3/4", "name": "Estherville", "reclat": "43.41667", "index": "291", "fall": "Fell", "mass": "320000.0", "year": "01/01/1879 12:00:00 AM", "reclong": "-94.83333"}, {"GeoLocation": "(39.750000, -97.033330)", "recclass": "L5", "name": "Farmington", "reclat": "39.75", "index": "292", "fall": "Fell", "mass": "89400.0", "year": "01/01/1890 12:00:00 AM", "reclong": "-97.03333"}, {"GeoLocation": "(35.550000, -77.533330)", "recclass": "H4", "name": "Farmville", "reclat": "35.55", "index": "293", "fall": "Fell", "mass": "56000.0", "year": "01/01/1934 12:00:00 AM", "reclong": "-77.53333"}, {"GeoLocation": "(44.383330, 2.816670)", "recclass": "H5", "name": "Favars", "reclat": "44.38333", "index": "294", "fall": "Fell", "mass": "1500.0", "year": "01/01/1844 12:00:00 AM", "reclong": "2.81667"}, {"GeoLocation": "(36.050000, -94.166670)", "recclass": "H4", "name": "Fayetteville", "reclat": "36.05", "index": "295", "fall": "Fell", "mass": "2360.0", "year": "01/01/1934 12:00:00 AM", "reclong": "-94.16667"}, {"GeoLocation": "(36.883330, 8.450000)", "recclass": "H4", "name": "Feid Chair", "reclat": "36.88333", "index": "296", "fall": "Fell", "mass": "380.0", "year": "01/01/1875 12:00:00 AM", "reclong": "8.45"}, {"GeoLocation": "(32.533330, -87.166670)", "recclass": "CO3.3", "name": "Felix", "reclat": "32.53333", "index": "297", "fall": "Fell", "mass": "3200.0", "year": "01/01/1900 12:00:00 AM", "reclong": "-87.16667"}, {"GeoLocation": "(34.600000, 116.750000)", "recclass": "H5", "name": "Fenghsien-Ku", "reclat": "34.6", "index": "298", "fall": "Fell", "mass": "82.0", "year": "01/01/1924 12:00:00 AM", "reclong": "116.75"}, {"GeoLocation": "(36.100000, -81.416670)", "recclass": "OC", "name": "Ferguson", "reclat": "36.1", "index": "299", "fall": "Fell", "mass": "220.0", "year": "01/01/1889 12:00:00 AM", "reclong": "-81.41667"}, {"GeoLocation": "(43.181110, 13.753330)", "recclass": "H3-5", "name": "Fermo", "reclat": "43.18111", "index": "300", "fall": "Fell", "mass": "10200.0", "year": "01/01/1996 12:00:00 AM", "reclong": "13.75333"}, {"GeoLocation": "(47.816670, -96.850000)", "recclass": "L6", "name": "Fisher", "reclat": "47.81667", "index": "301", "fall": "Fell", "mass": "17600.0", "year": "01/01/1894 12:00:00 AM", "reclong": "-96.85"}, {"GeoLocation": "(30.833330, -97.766670)", "recclass": "H3", "name": "Florence", "reclat": "30.83333", "index": "302", "fall": "Fell", "mass": "3640.0", "year": "01/01/1922 12:00:00 AM", "reclong": "-97.76667"}, {"GeoLocation": "(43.250000, -93.666670)", "recclass": "H5", "name": "Forest City", "reclat": "43.25", "index": "303", "fall": "Fell", "mass": "152000.0", "year": "01/01/1890 12:00:00 AM", "reclong": "-93.66667"}, {"GeoLocation": "(-33.350000, 146.858330)", "recclass": "H4", "name": "Forest Vale", "reclat": "-33.35", "index": "304", "fall": "Fell", "mass": "26000.0", "year": "01/01/1942 12:00:00 AM", "reclong": "146.85833"}, {"GeoLocation": "(36.783330, -78.083330)", "recclass": "L6", "name": "Forksville", "reclat": "36.78333", "index": "305", "fall": "Fell", "mass": "6067.0", "year": "01/01/1924 12:00:00 AM", "reclong": "-78.08333"}, {"GeoLocation": "(50.950000, 7.316670)", "recclass": "H6", "name": "Forsbach", "reclat": "50.95", "index": "306", "fall": "Fell", "mass": "240.0", "year": "01/01/1900 12:00:00 AM", "reclong": "7.31667"}, {"GeoLocation": "(33.016670, -83.966670)", "recclass": "L6", "name": "Forsyth", "reclat": "33.01667", "index": "307", "fall": "Fell", "mass": "16300.0", "year": "01/01/1829 12:00:00 AM", "reclong": "-83.96667"}, {"GeoLocation": "(28.250000, 7.000000)", "recclass": "Stone-uncl", "name": "Fort Flatters", "reclat": "28.25", "index": "308", "fall": "Fell", "mass": "0.0", "year": "01/01/1944 12:00:00 AM", "reclong": "7.0"}, {"GeoLocation": "(34.483330, -87.833330)", "recclass": "Howardite", "name": "Frankfort (stone)", "reclat": "34.48333", "index": "309", "fall": "Fell", "mass": "650.0", "year": "01/01/1868 12:00:00 AM", "reclong": "-87.83333"}, {"GeoLocation": "(31.475560, 113.566940)", "recclass": "L5", "name": "Fuhe", "reclat": "31.47556", "index": "310", "fall": "Fell", "mass": "23000.0", "year": "01/01/1945 12:00:00 AM", "reclong": "113.56694"}, {"GeoLocation": "(33.183330, 130.200000)", "recclass": "L5", "name": "Fukutomi", "reclat": "33.18333", "index": "311", "fall": "Fell", "mass": "11620.0", "year": "01/01/1882 12:00:00 AM", "reclong": "130.2"}, {"GeoLocation": "(55.333330, 10.333330)", "recclass": "Stone-uncl", "name": "F\u00fcnen", "reclat": "55.33333", "index": "312", "fall": "Fell", "mass": "0.0", "year": "01/01/1654 12:00:00 AM", "reclong": "10.33333"}, {"GeoLocation": "(25.950000, 80.816670)", "recclass": "L6", "name": "Futtehpur", "reclat": "25.95", "index": "313", "fall": "Fell", "mass": "4000.0", "year": "01/01/1822 12:00:00 AM", "reclong": "80.81667"}, {"GeoLocation": "(32.900000, 115.900000)", "recclass": "Stone-uncl", "name": "Fuyang", "reclat": "32.9", "index": "314", "fall": "Fell", "mass": "2500.0", "year": "01/01/1977 12:00:00 AM", "reclong": "115.9"}, {"GeoLocation": "(44.300000, 0.400000)", "recclass": "H6", "name": "Galapian", "reclat": "44.3", "index": "315", "fall": "Fell", "mass": "132.7", "year": "01/01/1826 12:00:00 AM", "reclong": "0.4"}, {"GeoLocation": "(7.050000, 12.433330)", "recclass": "LL6", "name": "Galim (a)", "reclat": "7.05", "index": "316", "fall": "Fell", "mass": "36.1", "year": "01/01/1952 12:00:00 AM", "reclong": "12.43333"}, {"GeoLocation": "(7.050000, 12.433330)", "recclass": "EH3/4-an", "name": "Galim (b)", "reclat": "7.05", "index": "317", "fall": "Fell", "mass": "28.0", "year": "01/01/1952 12:00:00 AM", "reclong": "12.43333"}, {"GeoLocation": "(51.683330, 30.783330)", "recclass": "H4", "name": "Galkiv", "reclat": "51.68333", "index": "318", "fall": "Fell", "mass": "5000.0", "year": "01/01/1995 12:00:00 AM", "reclong": "30.78333"}, {"GeoLocation": "(27.350000, 68.533330)", "recclass": "L6", "name": "Gambat", "reclat": "27.35", "index": "319", "fall": "Fell", "mass": "6400.0", "year": "01/01/1897 12:00:00 AM", "reclong": "68.53333"}, {"GeoLocation": "(11.650000, -2.183330)", "recclass": "H5", "name": "Gao-Guenie", "reclat": "11.65", "index": "320", "fall": "Fell", "mass": "0.0", "year": "01/01/1960 12:00:00 AM", "reclong": "-2.18333"}, {"GeoLocation": "(27.883330, 68.533330)", "recclass": "Iron, IIE", "name": "Garhi Yasin", "reclat": "27.88333", "index": "321", "fall": "Fell", "mass": "380.0", "year": "01/01/1917 12:00:00 AM", "reclong": "68.53333"}, {"GeoLocation": "(41.683330, -112.133330)", "recclass": "Diogenite-pm", "name": "Garland", "reclat": "41.68333", "index": "322", "fall": "Fell", "mass": "102.0", "year": "01/01/1950 12:00:00 AM", "reclong": "-112.13333"}, {"GeoLocation": "(12.850000, 11.033330)", "recclass": "L6", "name": "Gashua", "reclat": "12.85", "index": "323", "fall": "Fell", "mass": "4162.0", "year": "01/01/1984 12:00:00 AM", "reclong": "11.03333"}, {"GeoLocation": "(14.150830, -2.041670)", "recclass": "H5", "name": "Gasseltepaoua", "reclat": "14.15083", "index": "324", "fall": "Fell", "mass": "0.0", "year": "01/01/2000 12:00:00 AM", "reclong": "-2.04167"}, {"GeoLocation": "(12.916670, 11.916670)", "recclass": "H5", "name": "Geidam", "reclat": "12.91667", "index": "325", "fall": "Fell", "mass": "725.0", "year": "01/01/1950 12:00:00 AM", "reclong": "11.91667"}, {"GeoLocation": "(35.533330, 136.883330)", "recclass": "L6", "name": "Gifu", "reclat": "35.53333", "index": "326", "fall": "Fell", "mass": "14290.0", "year": "01/01/1909 12:00:00 AM", "reclong": "136.88333"}, {"GeoLocation": "(37.316670, 13.566670)", "recclass": "L6", "name": "Girgenti", "reclat": "37.31667", "index": "327", "fall": "Fell", "mass": "18000.0", "year": "01/01/1853 12:00:00 AM", "reclong": "13.56667"}, {"GeoLocation": "(9.600000, 9.916670)", "recclass": "L6", "name": "Git-Git", "reclat": "9.6", "index": "328", "fall": "Fell", "mass": "480.0", "year": "01/01/1947 12:00:00 AM", "reclong": "9.91667"}, {"GeoLocation": "(52.200000, 6.866670)", "recclass": "L/LL5", "name": "Glanerbrug", "reclat": "52.2", "index": "329", "fall": "Fell", "mass": "670.0", "year": "01/01/1990 12:00:00 AM", "reclong": "6.86667"}, {"GeoLocation": "(-7.250000, 107.700000)", "recclass": "H5-6", "name": "Glanggang", "reclat": "-7.25", "index": "330", "fall": "Fell", "mass": "1303.0", "year": "01/01/1939 12:00:00 AM", "reclong": "107.7"}, {"GeoLocation": "(57.350000, 37.616670)", "recclass": "H4", "name": "Glasatovo", "reclat": "57.35", "index": "331", "fall": "Fell", "mass": "152000.0", "year": "01/01/1918 12:00:00 AM", "reclong": "37.61667"}, {"GeoLocation": "(52.459720, -0.300000)", "recclass": "L6", "name": "Glatton", "reclat": "52.45972", "index": "332", "fall": "Fell", "mass": "767.0", "year": "01/01/1991 12:00:00 AM", "reclong": "-0.3"}, {"GeoLocation": "(50.666670, 16.766670)", "recclass": "H5", "name": "Gnadenfrei", "reclat": "50.66667", "index": "333", "fall": "Fell", "mass": "1750.0", "year": "01/01/1879 12:00:00 AM", "reclong": "16.76667"}, {"GeoLocation": "(24.233330, 89.050000)", "recclass": "H6", "name": "Gopalpur", "reclat": "24.23333", "index": "334", "fall": "Fell", "mass": "1600.0", "year": "01/01/1865 12:00:00 AM", "reclong": "89.05"}, {"GeoLocation": "(48.283330, 38.083330)", "recclass": "H3.7", "name": "Gorlovka", "reclat": "48.28333", "index": "335", "fall": "Fell", "mass": "3618.0", "year": "01/01/1974 12:00:00 AM", "reclong": "38.08333"}, {"GeoLocation": "(42.900000, 2.250000)", "recclass": "L6", "name": "Granes", "reclat": "42.9", "index": "336", "fall": "Fell", "mass": "9000.0", "year": "01/01/1964 12:00:00 AM", "reclong": "2.25"}, {"GeoLocation": "(60.666670, 11.000000)", "recclass": "L5", "name": "Grefsheim", "reclat": "60.66667", "index": "337", "fall": "Fell", "mass": "45.5", "year": "01/01/1976 12:00:00 AM", "reclong": "11.0"}, {"GeoLocation": "(43.200000, -79.616670)", "recclass": "H5", "name": "Grimsby", "reclat": "43.2", "index": "338", "fall": "Fell", "mass": "215.0", "year": "01/01/2009 12:00:00 AM", "reclong": "-79.61667"}, {"GeoLocation": "(43.666670, 45.383330)", "recclass": "CV3", "name": "Grosnaja", "reclat": "43.66667", "index": "339", "fall": "Fell", "mass": "3500.0", "year": "01/01/1861 12:00:00 AM", "reclong": "45.38333"}, {"GeoLocation": "(49.266670, 18.716670)", "recclass": "H5", "name": "Gross-Divina", "reclat": "49.26667", "index": "340", "fall": "Fell", "mass": "10500.0", "year": "01/01/1837 12:00:00 AM", "reclong": "18.71667"}, {"GeoLocation": "(46.350000, 30.583330)", "recclass": "L6", "name": "Grossliebenthal", "reclat": "46.35", "index": "341", "fall": "Fell", "mass": "8000.0", "year": "01/01/1881 12:00:00 AM", "reclong": "30.58333"}, {"GeoLocation": "(51.933330, 15.500000)", "recclass": "H4", "name": "Gr\u00fcneberg", "reclat": "51.93333", "index": "342", "fall": "Fell", "mass": "1000.0", "year": "01/01/1841 12:00:00 AM", "reclong": "15.5"}, {"GeoLocation": "(52.866670, 16.633330)", "recclass": "H5", "name": "Grzempach", "reclat": "52.86667", "index": "343", "fall": "Fell", "mass": "690.0", "year": "01/01/1910 12:00:00 AM", "reclong": "16.63333"}, {"GeoLocation": "(-33.000000, -58.616670)", "recclass": "H6", "name": "Gualeguaych\u00fa", "reclat": "-33.0", "index": "344", "fall": "Fell", "mass": "22000.0", "year": "01/01/1932 12:00:00 AM", "reclong": "-58.61667"}, {"GeoLocation": "(39.804170, 122.763890)", "recclass": "H5", "name": "Guangmingshan", "reclat": "39.80417", "index": "345", "fall": "Fell", "mass": "2910.0", "year": "01/01/1996 12:00:00 AM", "reclong": "122.76389"}, {"GeoLocation": "(24.100000, 105.000000)", "recclass": "L6", "name": "Guangnan", "reclat": "24.1", "index": "346", "fall": "Fell", "mass": "0.0", "year": "01/01/1983 12:00:00 AM", "reclong": "105.0"}, {"GeoLocation": "(37.100000, 118.400000)", "recclass": "L6", "name": "Guangrao", "reclat": "37.1", "index": "347", "fall": "Fell", "mass": "1900.0", "year": "01/01/1980 12:00:00 AM", "reclong": "118.4"}, {"GeoLocation": "(38.733330, -6.016670)", "recclass": "H6", "name": "Guare\u00f1a", "reclat": "38.73333", "index": "348", "fall": "Fell", "mass": "39000.0", "year": "01/01/1892 12:00:00 AM", "reclong": "-6.01667"}, {"GeoLocation": "(43.766670, 20.233330)", "recclass": "Stone-uncl", "name": "Gu\u00eaa", "reclat": "43.76667", "index": "349", "fall": "Fell", "mass": "1915.0", "year": "01/01/1891 12:00:00 AM", "reclong": "20.23333"}, {"GeoLocation": "(13.500000, -0.683330)", "recclass": "L5", "name": "Guibga", "reclat": "13.5", "index": "350", "fall": "Fell", "mass": "288.0", "year": "01/01/1972 12:00:00 AM", "reclong": "-0.68333"}, {"GeoLocation": "(9.916670, 13.983330)", "recclass": "LL5", "name": "Guidder", "reclat": "9.91667", "index": "351", "fall": "Fell", "mass": "968.0", "year": "01/01/1949 12:00:00 AM", "reclong": "13.98333"}, {"GeoLocation": "(22.983330, 76.050000)", "recclass": "H5", "name": "Gujargaon", "reclat": "22.98333", "index": "352", "fall": "Fell", "mass": "2449.0", "year": "01/01/1982 12:00:00 AM", "reclong": "76.05"}, {"GeoLocation": "(11.491670, 11.658330)", "recclass": "CBa", "name": "Gujba", "reclat": "11.49167", "index": "353", "fall": "Fell", "mass": "100000.0", "year": "01/01/1984 12:00:00 AM", "reclong": "11.65833"}, {"GeoLocation": "(42.900000, 24.700000)", "recclass": "H5", "name": "Gumoschnik", "reclat": "42.9", "index": "354", "fall": "Fell", "mass": "5700.0", "year": "01/01/1904 12:00:00 AM", "reclong": "24.7"}, {"GeoLocation": "(13.783330, 78.566670)", "recclass": "L6", "name": "Gurram Konda", "reclat": "13.78333", "index": "355", "fall": "Fell", "mass": "28.0", "year": "01/01/1814 12:00:00 AM", "reclong": "78.56667"}, {"GeoLocation": "(9.366670, 42.416670)", "recclass": "H4/5", "name": "Gursum", "reclat": "9.36667", "index": "356", "fall": "Fell", "mass": "34650.0", "year": "01/01/1981 12:00:00 AM", "reclong": "42.41667"}, {"GeoLocation": "(51.916670, 8.383330)", "recclass": "H3/4", "name": "G\u00fctersloh", "reclat": "51.91667", "index": "357", "fall": "Fell", "mass": "1000.0", "year": "01/01/1851 12:00:00 AM", "reclong": "8.38333"}, {"GeoLocation": "(35.000000, 127.500000)", "recclass": "OC", "name": "Gyokukei", "reclat": "35.0", "index": "358", "fall": "Fell", "mass": "1320.0", "year": "01/01/1930 12:00:00 AM", "reclong": "127.5"}, {"GeoLocation": "(35.650000, 139.333330)", "recclass": "H?", "name": "Hachi-oji", "reclat": "35.65", "index": "359", "fall": "Fell", "mass": "0.2", "year": "01/01/1817 12:00:00 AM", "reclong": "139.33333"}, {"GeoLocation": "(50.316670, 3.733330)", "recclass": "H3-6", "name": "Hainaut", "reclat": "50.31667", "index": "360", "fall": "Fell", "mass": "9000.0", "year": "01/01/1934 12:00:00 AM", "reclong": "3.73333"}, {"GeoLocation": "(57.816670, 16.233330)", "recclass": "L3.4", "name": "Hallingeberg", "reclat": "57.81667", "index": "361", "fall": "Fell", "mass": "1456.0", "year": "01/01/1944 12:00:00 AM", "reclong": "16.23333"}, {"GeoLocation": "(41.383330, -86.600000)", "recclass": "LL4", "name": "Hamlet", "reclat": "41.38333", "index": "362", "fall": "Fell", "mass": "3710.0", "year": "01/01/1959 12:00:00 AM", "reclong": "-86.6"}, {"GeoLocation": "(26.800000, 82.533330)", "recclass": "Eucrite-mmict", "name": "Haraiya", "reclat": "26.8", "index": "363", "fall": "Fell", "mass": "1000.0", "year": "01/01/1878 12:00:00 AM", "reclong": "82.53333"}, {"GeoLocation": "(28.383330, 75.783330)", "recclass": "CM2", "name": "Haripura", "reclat": "28.38333", "index": "364", "fall": "Fell", "mass": "315.0", "year": "01/01/1921 12:00:00 AM", "reclong": "75.78333"}, {"GeoLocation": "(32.675000, -94.511670)", "recclass": "L6", "name": "Harleton", "reclat": "32.675", "index": "365", "fall": "Fell", "mass": "8360.0", "year": "01/01/1961 12:00:00 AM", "reclong": "-94.51167"}, {"GeoLocation": "(38.250000, -86.166670)", "recclass": "L6", "name": "Harrison County", "reclat": "38.25", "index": "366", "fall": "Fell", "mass": "680.0", "year": "01/01/1859 12:00:00 AM", "reclong": "-86.16667"}, {"GeoLocation": "(35.294500, 136.700330)", "recclass": "H4", "name": "Hashima", "reclat": "35.2945", "index": "367", "fall": "Fell", "mass": "1110.6", "year": "01/01/1910 12:00:00 AM", "reclong": "136.70033"}, {"GeoLocation": "(28.950000, 0.816670)", "recclass": "Iron, IAB-sHL", "name": "Hassi-Jekna", "reclat": "28.95", "index": "368", "fall": "Fell", "mass": "1250.0", "year": "01/01/1890 12:00:00 AM", "reclong": "0.81667"}, {"GeoLocation": "(51.650000, -1.516670)", "recclass": "Stone-uncl", "name": "Hatford", "reclat": "51.65", "index": "369", "fall": "Fell", "mass": "29000.0", "year": "01/01/1628 12:00:00 AM", "reclong": "-1.51667"}, {"GeoLocation": "(60.245560, 22.061940)", "recclass": "Ureilite", "name": "Haver\u00f6", "reclat": "60.24556", "index": "370", "fall": "Fell", "mass": "1544.0", "year": "01/01/1971 12:00:00 AM", "reclong": "22.06194"}, {"GeoLocation": "(55.466670, 13.783330)", "recclass": "H5", "name": "Hedeskoga", "reclat": "55.46667", "index": "371", "fall": "Fell", "mass": "3500.0", "year": "01/01/1922 12:00:00 AM", "reclong": "13.78333"}, {"GeoLocation": "(27.333330, 35.666670)", "recclass": "L3.7-6", "name": "Hedjaz", "reclat": "27.33333", "index": "372", "fall": "Fell", "mass": "6100.0", "year": "01/01/1910 12:00:00 AM", "reclong": "35.66667"}, {"GeoLocation": "(10.000000, -84.100000)", "recclass": "H5", "name": "Heredia", "reclat": "10.0", "index": "373", "fall": "Fell", "mass": "1000.0", "year": "01/01/1857 12:00:00 AM", "reclong": "-84.1"}, {"GeoLocation": "(59.850000, 17.666670)", "recclass": "H5", "name": "Hessle", "reclat": "59.85", "index": "374", "fall": "Fell", "mass": "20000.0", "year": "01/01/1869 12:00:00 AM", "reclong": "17.66667"}, {"GeoLocation": "(33.600000, 130.433330)", "recclass": "H5", "name": "Higashi-koen", "reclat": "33.6", "index": "375", "fall": "Fell", "mass": "750.0", "year": "01/01/1897 12:00:00 AM", "reclong": "130.43333"}, {"GeoLocation": "(55.900000, -4.233330)", "recclass": "L6", "name": "High Possil", "reclat": "55.9", "index": "376", "fall": "Fell", "mass": "4500.0", "year": "01/01/1804 12:00:00 AM", "reclong": "-4.23333"}, {"GeoLocation": "(34.450000, 132.383330)", "recclass": "H5", "name": "Hiroshima", "reclat": "34.45", "index": "377", "fall": "Fell", "mass": "414.0", "year": "01/01/2003 12:00:00 AM", "reclong": "132.38333"}, {"GeoLocation": "(1.345000, 31.472780)", "recclass": "H6", "name": "Hoima", "reclat": "1.345", "index": "378", "fall": "Fell", "mass": "167.7", "year": "01/01/2003 12:00:00 AM", "reclong": "31.47278"}, {"GeoLocation": "(64.433330, 21.200000)", "recclass": "L4", "name": "H\u00f6kmark", "reclat": "64.43333", "index": "379", "fall": "Fell", "mass": "305.5", "year": "01/01/1954 12:00:00 AM", "reclong": "21.2"}, {"GeoLocation": "(34.900000, -110.183330)", "recclass": "L/LL6", "name": "Holbrook", "reclat": "34.9", "index": "380", "fall": "Fell", "mass": "220000.0", "year": "01/01/1912 12:00:00 AM", "reclong": "-110.18333"}, {"GeoLocation": "(9.066670, 38.416670)", "recclass": "Stone-uncl", "name": "Holetta", "reclat": "9.06667", "index": "381", "fall": "Fell", "mass": "1415.0", "year": "01/01/1923 12:00:00 AM", "reclong": "38.41667"}, {"GeoLocation": "(41.800000, -91.866670)", "recclass": "L5", "name": "Homestead", "reclat": "41.8", "index": "382", "fall": "Fell", "mass": "230000.0", "year": "01/01/1875 12:00:00 AM", "reclong": "-91.86667"}, {"GeoLocation": "(21.300000, -157.866670)", "recclass": "L5", "name": "Honolulu", "reclat": "21.3", "index": "383", "fall": "Fell", "mass": "2420.0", "year": "01/01/1825 12:00:00 AM", "reclong": "-157.86667"}, {"GeoLocation": "(35.666670, 115.500000)", "recclass": "L6", "name": "Hotse", "reclat": "35.66667", "index": "384", "fall": "Fell", "mass": "180.0", "year": "01/01/1956 12:00:00 AM", "reclong": "115.5"}, {"GeoLocation": "(39.350000, -100.450000)", "recclass": "OC", "name": "Hoxie", "reclat": "39.35", "index": "385", "fall": "Fell", "mass": "266.1", "year": "01/01/1963 12:00:00 AM", "reclong": "-100.45"}, {"GeoLocation": "(46.100000, 16.333330)", "recclass": "Iron, IID", "name": "Hraschina", "reclat": "46.1", "index": "386", "fall": "Fell", "mass": "49000.0", "year": "01/01/1751 12:00:00 AM", "reclong": "16.33333"}, {"GeoLocation": "(26.464690, 106.632410)", "recclass": "H5", "name": "Huaxi", "reclat": "26.46469", "index": "387", "fall": "Fell", "mass": "1600.0", "year": "01/01/2010 12:00:00 AM", "reclong": "106.63241"}, {"GeoLocation": "(50.300000, 8.916670)", "recclass": "H6", "name": "Hungen", "reclat": "50.3", "index": "388", "fall": "Fell", "mass": "112.0", "year": "01/01/1877 12:00:00 AM", "reclong": "8.91667"}, {"GeoLocation": "(61.183330, 22.683330)", "recclass": "EL6", "name": "Hvittis", "reclat": "61.18333", "index": "389", "fall": "Fell", "mass": "14000.0", "year": "01/01/1901 12:00:00 AM", "reclong": "22.68333"}, {"GeoLocation": "(52.283330, 7.700000)", "recclass": "Diogenite", "name": "Ibbenb\u00fcren", "reclat": "52.28333", "index": "390", "fall": "Fell", "mass": "2000.0", "year": "01/01/1870 12:00:00 AM", "reclong": "7.7"}, {"GeoLocation": "(-20.000000, -45.000000)", "recclass": "Eucrite-mmict", "name": "Ibitira", "reclat": "-20.0", "index": "391", "fall": "Fell", "mass": "2500.0", "year": "01/01/1957 12:00:00 AM", "reclong": "-45.0"}, {"GeoLocation": "(38.000000, 35.000000)", "recclass": "OC", "name": "Ibrisim", "reclat": "38.0", "index": "392", "fall": "Fell", "mass": "0.0", "year": "01/01/1949 12:00:00 AM", "reclong": "35.0"}, {"GeoLocation": "(58.200000, 82.933330)", "recclass": "H6", "name": "Ichkala", "reclat": "58.2", "index": "393", "fall": "Fell", "mass": "3973.0", "year": "01/01/1936 12:00:00 AM", "reclong": "82.93333"}, {"GeoLocation": "(-32.100000, 28.333330)", "recclass": "H5", "name": "Idutywa", "reclat": "-32.1", "index": "394", "fall": "Fell", "mass": "3457.0", "year": "01/01/1956 12:00:00 AM", "reclong": "28.33333"}, {"GeoLocation": "(-23.200000, -51.833330)", "recclass": "H5", "name": "Iguaracu", "reclat": "-23.2", "index": "395", "fall": "Fell", "mass": "1200.0", "year": "01/01/1977 12:00:00 AM", "reclong": "-51.83333"}, {"GeoLocation": "(-6.033330, 145.366670)", "recclass": "H6", "name": "Ijopega", "reclat": "-6.03333", "index": "396", "fall": "Fell", "mass": "7330.0", "year": "01/01/1975 12:00:00 AM", "reclong": "145.36667"}, {"GeoLocation": "(39.750000, 46.666670)", "recclass": "EH4", "name": "Indarch", "reclat": "39.75", "index": "397", "fall": "Fell", "mass": "27000.0", "year": "01/01/1891 12:00:00 AM", "reclong": "46.66667"}, {"GeoLocation": "(39.083330, -94.400000)", "recclass": "L6", "name": "Independence", "reclat": "39.08333", "index": "398", "fall": "Fell", "mass": "880.0", "year": "01/01/1917 12:00:00 AM", "reclong": "-94.4"}, {"GeoLocation": "(41.000000, 112.000000)", "recclass": "L6", "name": "Inner Mongolia", "reclat": "41.0", "index": "399", "fall": "Fell", "mass": "3000.0", "year": "01/01/1963 12:00:00 AM", "reclong": "112.0"}, {"GeoLocation": "(53.415000, -111.337500)", "recclass": "L5", "name": "Innisfree", "reclat": "53.415", "index": "400", "fall": "Fell", "mass": "4576.0", "year": "01/01/1977 12:00:00 AM", "reclong": "-111.3375"}, {"GeoLocation": "(-25.500000, -54.500000)", "recclass": "H6", "name": "Ipiranga", "reclat": "-25.5", "index": "401", "fall": "Fell", "mass": "7000.0", "year": "01/01/1972 12:00:00 AM", "reclong": "-54.5"}, {"GeoLocation": "(-8.933330, 33.800000)", "recclass": "H", "name": "Ishinga", "reclat": "-8.93333", "index": "402", "fall": "Fell", "mass": "1300.0", "year": "01/01/1954 12:00:00 AM", "reclong": "33.8"}, {"GeoLocation": "(-31.183330, -57.950000)", "recclass": "H5", "name": "Isthilart", "reclat": "-31.18333", "index": "403", "fall": "Fell", "mass": "3050.0", "year": "01/01/1928 12:00:00 AM", "reclong": "-57.95"}, {"GeoLocation": "(-3.400000, -44.333330)", "recclass": "H5", "name": "Itapicuru-Mirim", "reclat": "-3.4", "index": "404", "fall": "Fell", "mass": "2024.0", "year": "01/01/1879 12:00:00 AM", "reclong": "-44.33333"}, {"GeoLocation": "(26.590830, -12.952170)", "recclass": "EH7-an", "name": "Itqiy", "reclat": "26.59083", "index": "405", "fall": "Fell", "mass": "4720.0", "year": "01/01/1990 12:00:00 AM", "reclong": "-12.95217"}, {"GeoLocation": "(-8.416670, 32.433330)", "recclass": "CI1", "name": "Ivuna", "reclat": "-8.41667", "index": "406", "fall": "Fell", "mass": "704.5", "year": "01/01/1938 12:00:00 AM", "reclong": "32.43333"}, {"GeoLocation": "(-32.500000, 21.900000)", "recclass": "L6", "name": "Jackalsfontein", "reclat": "-32.5", "index": "407", "fall": "Fell", "mass": "48000.0", "year": "01/01/1903 12:00:00 AM", "reclong": "21.9"}, {"GeoLocation": "(26.750000, 68.416670)", "recclass": "EL6", "name": "Jajh deh Kot Lalu", "reclat": "26.75", "index": "408", "fall": "Fell", "mass": "973.0", "year": "01/01/1926 12:00:00 AM", "reclong": "68.41667"}, {"GeoLocation": "0", "recclass": "Ureilite", "name": "Jalanash", "reclat": "0.0", "index": "409", "fall": "Fell", "mass": "700.0", "year": "01/01/1990 12:00:00 AM", "reclong": "0.0"}, {"GeoLocation": "(31.000000, 75.000000)", "recclass": "Iron", "name": "Jalandhar", "reclat": "31.0", "index": "410", "fall": "Fell", "mass": "1967.0", "year": "01/01/1621 12:00:00 AM", "reclong": "75.0"}, {"GeoLocation": "(18.750000, 75.333330)", "recclass": "H6", "name": "Jamkheir", "reclat": "18.75", "index": "411", "fall": "Fell", "mass": "22.0", "year": "01/01/1866 12:00:00 AM", "reclong": "75.33333"}, {"GeoLocation": "(39.700000, 105.800000)", "recclass": "L6", "name": "Jartai", "reclat": "39.7", "index": "412", "fall": "Fell", "mass": "20500.0", "year": "01/01/1979 12:00:00 AM", "reclong": "105.8"}, {"GeoLocation": "(43.833330, 20.441670)", "recclass": "LL6", "name": "Jelica", "reclat": "43.83333", "index": "413", "fall": "Fell", "mass": "34000.0", "year": "01/01/1889 12:00:00 AM", "reclong": "20.44167"}, {"GeoLocation": "0", "recclass": "L6", "name": "Jemlapur", "reclat": "0.0", "index": "414", "fall": "Fell", "mass": "450.0", "year": "01/01/1901 12:00:00 AM", "reclong": "0.0"}, {"GeoLocation": "(46.421370, 14.052170)", "recclass": "L6", "name": "Jesenice", "reclat": "46.42137", "index": "415", "fall": "Fell", "mass": "3667.0", "year": "01/01/2009 12:00:00 AM", "reclong": "14.05217"}, {"GeoLocation": "(31.300000, 72.383330)", "recclass": "L5", "name": "Jhung", "reclat": "31.3", "index": "416", "fall": "Fell", "mass": "5900.0", "year": "01/01/1873 12:00:00 AM", "reclong": "72.38333"}, {"GeoLocation": "(31.916670, 104.916670)", "recclass": "H5", "name": "Jiange", "reclat": "31.91667", "index": "417", "fall": "Fell", "mass": "222.0", "year": "01/01/1964 12:00:00 AM", "reclong": "104.91667"}, {"GeoLocation": "(30.808330, 109.500000)", "recclass": "Iron, IIIAB", "name": "Jianshi", "reclat": "30.80833", "index": "418", "fall": "Fell", "mass": "600000.0", "year": "01/01/1890 12:00:00 AM", "reclong": "109.5"}, {"GeoLocation": "(44.050000, 126.166670)", "recclass": "H5", "name": "Jilin", "reclat": "44.05", "index": "419", "fall": "Fell", "mass": "4000000.0", "year": "01/01/1976 12:00:00 AM", "reclong": "126.16667"}, {"GeoLocation": "(22.680000, 70.313330)", "recclass": "L5", "name": "Jodiya", "reclat": "22.68", "index": "420", "fall": "Fell", "mass": "100.0", "year": "01/01/2006 12:00:00 AM", "reclong": "70.31333"}, {"GeoLocation": "(55.700000, 24.400000)", "recclass": "Howardite", "name": "Jodzie", "reclat": "55.7", "index": "421", "fall": "Fell", "mass": "30.0", "year": "01/01/1877 12:00:00 AM", "reclong": "24.4"}, {"GeoLocation": "(40.350000, -104.900000)", "recclass": "Diogenite", "name": "Johnstown", "reclat": "40.35", "index": "422", "fall": "Fell", "mass": "40300.0", "year": "01/01/1924 12:00:00 AM", "reclong": "-104.9"}, {"GeoLocation": "(-11.850000, 15.833330)", "recclass": "LL6", "name": "Jolomba", "reclat": "-11.85", "index": "423", "fall": "Fell", "mass": "483.0", "year": "01/01/1974 12:00:00 AM", "reclong": "15.83333"}, {"GeoLocation": "(45.433330, -0.450000)", "recclass": "Eucrite-mmict", "name": "Jonzac", "reclat": "45.43333", "index": "424", "fall": "Fell", "mass": "5000.0", "year": "01/01/1819 12:00:00 AM", "reclong": "-0.45"}, {"GeoLocation": "(35.500000, 115.416670)", "recclass": "H5", "name": "Juancheng", "reclat": "35.5", "index": "425", "fall": "Fell", "mass": "100000.0", "year": "01/01/1997 12:00:00 AM", "reclong": "115.41667"}, {"GeoLocation": "(12.850000, 76.800000)", "recclass": "H6", "name": "Judesegeri", "reclat": "12.85", "index": "426", "fall": "Fell", "mass": "680.0", "year": "01/01/1876 12:00:00 AM", "reclong": "76.8"}, {"GeoLocation": "(-7.716670, 111.200000)", "recclass": "L6", "name": "Jumapalo", "reclat": "-7.71667", "index": "427", "fall": "Fell", "mass": "32490.0", "year": "01/01/1984 12:00:00 AM", "reclong": "111.2"}, {"GeoLocation": "(35.200000, 118.800000)", "recclass": "L6", "name": "Junan", "reclat": "35.2", "index": "428", "fall": "Fell", "mass": "950.0", "year": "01/01/1976 12:00:00 AM", "reclong": "118.8"}, {"GeoLocation": "(38.740280, -7.270000)", "recclass": "Iron, IIIAB", "name": "Juromenha", "reclat": "38.74028", "index": "429", "fall": "Fell", "mass": "25250.0", "year": "01/01/1968 12:00:00 AM", "reclong": "-7.27"}, {"GeoLocation": "(44.716670, 4.300000)", "recclass": "Eucrite-mmict", "name": "Juvinas", "reclat": "44.71667", "index": "430", "fall": "Fell", "mass": "91000.0", "year": "01/01/1821 12:00:00 AM", "reclong": "4.3"}, {"GeoLocation": "(47.350000, 21.300000)", "recclass": "CV3", "name": "Kaba", "reclat": "47.35", "index": "431", "fall": "Fell", "mass": "3000.0", "year": "01/01/1857 12:00:00 AM", "reclong": "21.3"}, {"GeoLocation": "(11.850000, 8.216670)", "recclass": "H4", "name": "Kabo", "reclat": "11.85", "index": "432", "fall": "Fell", "mass": "13400.0", "year": "01/01/1971 12:00:00 AM", "reclong": "8.21667"}, {"GeoLocation": "(27.083330, 78.333330)", "recclass": "H6", "name": "Kadonah", "reclat": "27.08333", "index": "433", "fall": "Fell", "mass": "89.0", "year": "01/01/1822 12:00:00 AM", "reclong": "78.33333"}, {"GeoLocation": "(27.250000, 79.966670)", "recclass": "H5", "name": "Kaee", "reclat": "27.25", "index": "434", "fall": "Fell", "mass": "230.0", "year": "01/01/1838 12:00:00 AM", "reclong": "79.96667"}, {"GeoLocation": "(49.866670, 30.833330)", "recclass": "L6", "name": "Kagarlyk", "reclat": "49.86667", "index": "435", "fall": "Fell", "mass": "1900.0", "year": "01/01/1908 12:00:00 AM", "reclong": "30.83333"}, {"GeoLocation": "(15.000000, 48.300000)", "recclass": "CR2", "name": "Kaidun", "reclat": "15.0", "index": "436", "fall": "Fell", "mass": "2000.0", "year": "01/01/1980 12:00:00 AM", "reclong": "48.3"}, {"GeoLocation": "(55.433330, 53.250000)", "recclass": "CO3.2", "name": "Kainsaz", "reclat": "55.43333", "index": "437", "fall": "Fell", "mass": "200000.0", "year": "01/01/1937 12:00:00 AM", "reclong": "53.25"}, {"GeoLocation": "(12.383330, 78.516670)", "recclass": "K3", "name": "Kakangari", "reclat": "12.38333", "index": "438", "fall": "Fell", "mass": "350.0", "year": "01/01/1890 12:00:00 AM", "reclong": "78.51667"}, {"GeoLocation": "(45.133330, 21.666670)", "recclass": "L6", "name": "Kakowa", "reclat": "45.13333", "index": "439", "fall": "Fell", "mass": "577.0", "year": "01/01/1858 12:00:00 AM", "reclong": "21.66667"}, {"GeoLocation": "(-6.833330, 29.500000)", "recclass": "H4", "name": "Kalaba", "reclat": "-6.83333", "index": "440", "fall": "Fell", "mass": "950.0", "year": "01/01/1951 12:00:00 AM", "reclong": "29.5"}, {"GeoLocation": "(17.833330, 73.983330)", "recclass": "L6", "name": "Kalumbi", "reclat": "17.83333", "index": "441", "fall": "Fell", "mass": "4500.0", "year": "01/01/1879 12:00:00 AM", "reclong": "73.98333"}, {"GeoLocation": "(26.033330, 81.466670)", "recclass": "L6", "name": "Kamalpur", "reclat": "26.03333", "index": "442", "fall": "Fell", "mass": "2770.0", "year": "01/01/1942 12:00:00 AM", "reclong": "81.46667"}, {"GeoLocation": "(36.041670, 139.956670)", "recclass": "H5", "name": "Kamiomi", "reclat": "36.04167", "index": "443", "fall": "Fell", "mass": "448.0", "year": "01/01/1913 12:00:00 AM", "reclong": "139.95667"}, {"GeoLocation": "(14.183330, 75.800000)", "recclass": "L6", "name": "Kamsagar", "reclat": "14.18333", "index": "444", "fall": "Fell", "mass": "1293.0", "year": "01/01/1902 12:00:00 AM", "reclong": "75.8"}, {"GeoLocation": "(31.600000, 65.783330)", "recclass": "L6", "name": "Kandahar (Afghanistan)", "reclat": "31.6", "index": "445", "fall": "Fell", "mass": "299.0", "year": "01/01/1959 12:00:00 AM", "reclong": "65.78333"}, {"GeoLocation": "(-7.000000, 115.500000)", "recclass": "H5", "name": "Kangean", "reclat": "-7.0", "index": "446", "fall": "Fell", "mass": "1630.0", "year": "01/01/1908 12:00:00 AM", "reclong": "115.5"}, {"GeoLocation": "(32.083330, 76.300000)", "recclass": "H5", "name": "Kangra Valley", "reclat": "32.08333", "index": "447", "fall": "Fell", "mass": "400.0", "year": "01/01/1897 12:00:00 AM", "reclong": "76.3"}, {"GeoLocation": "(4.700000, 33.633330)", "recclass": "Howardite", "name": "Kapoeta", "reclat": "4.7", "index": "448", "fall": "Fell", "mass": "11355.0", "year": "01/01/1942 12:00:00 AM", "reclong": "33.63333"}, {"GeoLocation": "(20.339160, 73.223290)", "recclass": "L5/6", "name": "Kaprada", "reclat": "20.33916", "index": "449", "fall": "Fell", "mass": "1600.0", "year": "01/01/2004 12:00:00 AM", "reclong": "73.22329"}, {"GeoLocation": "(42.450000, 73.366670)", "recclass": "L6", "name": "Kaptal-Aryk", "reclat": "42.45", "index": "450", "fall": "Fell", "mass": "3500.0", "year": "01/01/1937 12:00:00 AM", "reclong": "73.36667"}, {"GeoLocation": "(47.216670, 81.016670)", "recclass": "LL6", "name": "Karakol", "reclat": "47.21667", "index": "451", "fall": "Fell", "mass": "3000.0", "year": "01/01/1840 12:00:00 AM", "reclong": "81.01667"}, {"GeoLocation": "(-3.500000, 35.583330)", "recclass": "LL6", "name": "Karatu", "reclat": "-3.5", "index": "452", "fall": "Fell", "mass": "2220.0", "year": "01/01/1963 12:00:00 AM", "reclong": "35.58333"}, {"GeoLocation": "(12.900000, 7.150000)", "recclass": "L6", "name": "Karewar", "reclat": "12.9", "index": "453", "fall": "Fell", "mass": "180.0", "year": "01/01/1949 12:00:00 AM", "reclong": "7.15"}, {"GeoLocation": "(27.800000, 67.166670)", "recclass": "L6", "name": "Karkh", "reclat": "27.8", "index": "454", "fall": "Fell", "mass": "22000.0", "year": "01/01/1905 12:00:00 AM", "reclong": "67.16667"}, {"GeoLocation": "(31.583330, 71.600000)", "recclass": "L6", "name": "Karloowala", "reclat": "31.58333", "index": "455", "fall": "Fell", "mass": "2950.0", "year": "01/01/1955 12:00:00 AM", "reclong": "71.6"}, {"GeoLocation": "(-35.083330, 139.916670)", "recclass": "CK4", "name": "Karoonda", "reclat": "-35.08333", "index": "456", "fall": "Fell", "mass": "41730.0", "year": "01/01/1930 12:00:00 AM", "reclong": "139.91667"}, {"GeoLocation": "(35.366670, 136.766670)", "recclass": "H", "name": "Kasamatsu", "reclat": "35.36667", "index": "457", "fall": "Fell", "mass": "710.0", "year": "01/01/1938 12:00:00 AM", "reclong": "136.76667"}, {"GeoLocation": "(29.583330, 77.583330)", "recclass": "H4", "name": "Kasauli", "reclat": "29.58333", "index": "458", "fall": "Fell", "mass": "16820.0", "year": "01/01/2003 12:00:00 AM", "reclong": "77.58333"}, {"GeoLocation": "(11.333330, 10.083330)", "recclass": "L6", "name": "Katagum", "reclat": "11.33333", "index": "459", "fall": "Fell", "mass": "1500.0", "year": "01/01/1999 12:00:00 AM", "reclong": "10.08333"}, {"GeoLocation": "(25.143330, 75.813330)", "recclass": "Iron, IIE-an", "name": "Kavarpura", "reclat": "25.14333", "index": "460", "fall": "Fell", "mass": "6800.0", "year": "01/01/2006 12:00:00 AM", "reclong": "75.81333"}, {"GeoLocation": "(39.263330, 31.780000)", "recclass": "Iron, IIIAB", "name": "Kayakent", "reclat": "39.26333", "index": "461", "fall": "Fell", "mass": "85000.0", "year": "01/01/1961 12:00:00 AM", "reclong": "31.78"}, {"GeoLocation": "(-7.750000, 112.016670)", "recclass": "L4", "name": "Kediri", "reclat": "-7.75", "index": "462", "fall": "Fell", "mass": "3300.0", "year": "01/01/1940 12:00:00 AM", "reclong": "112.01667"}, {"GeoLocation": "(36.541940, 29.418220)", "recclass": "L4", "name": "Kemer", "reclat": "36.54194", "index": "463", "fall": "Fell", "mass": "5760.0", "year": "01/01/2008 12:00:00 AM", "reclong": "29.41822"}, {"GeoLocation": "(29.450000, -96.000000)", "recclass": "L4", "name": "Kendleton", "reclat": "29.45", "index": "464", "fall": "Fell", "mass": "6937.0", "year": "01/01/1939 12:00:00 AM", "reclong": "-96.0"}, {"GeoLocation": "(20.462500, 86.702780)", "recclass": "H4-5", "name": "Kendrapara", "reclat": "20.4625", "index": "465", "fall": "Fell", "mass": "6669.2", "year": "01/01/2003 12:00:00 AM", "reclong": "86.70278"}, {"GeoLocation": "(48.400000, -3.300000)", "recclass": "H5", "name": "Kerilis", "reclat": "48.4", "index": "466", "fall": "Fell", "mass": "5000.0", "year": "01/01/1874 12:00:00 AM", "reclong": "-3.3"}, {"GeoLocation": "(48.116670, -3.083330)", "recclass": "H6", "name": "Kernouve", "reclat": "48.11667", "index": "467", "fall": "Fell", "mass": "80000.0", "year": "01/01/1869 12:00:00 AM", "reclong": "-3.08333"}, {"GeoLocation": "(38.983330, 141.616670)", "recclass": "H4", "name": "Kesen", "reclat": "38.98333", "index": "468", "fall": "Fell", "mass": "135000.0", "year": "01/01/1850 12:00:00 AM", "reclong": "141.61667"}, {"GeoLocation": "(29.533330, 72.300000)", "recclass": "EL6", "name": "Khairpur", "reclat": "29.53333", "index": "469", "fall": "Fell", "mass": "13600.0", "year": "01/01/1873 12:00:00 AM", "reclong": "72.3"}, {"GeoLocation": "(25.550000, 83.116670)", "recclass": "LL5", "name": "Khanpur", "reclat": "25.55", "index": "470", "fall": "Fell", "mass": "3698.0", "year": "01/01/1932 12:00:00 AM", "reclong": "83.11667"}, {"GeoLocation": "(50.625000, 35.075000)", "recclass": "L6", "name": "Kharkov", "reclat": "50.625", "index": "471", "fall": "Fell", "mass": "1500.0", "year": "01/01/1787 12:00:00 AM", "reclong": "35.075"}, {"GeoLocation": "(26.950000, 77.883330)", "recclass": "L6", "name": "Kheragur", "reclat": "26.95", "index": "472", "fall": "Fell", "mass": "450.0", "year": "01/01/1860 12:00:00 AM", "reclong": "77.88333"}, {"GeoLocation": "(28.016670, 75.816670)", "recclass": "H6", "name": "Khetri", "reclat": "28.01667", "index": "473", "fall": "Fell", "mass": "100.0", "year": "01/01/1867 12:00:00 AM", "reclong": "75.81667"}, {"GeoLocation": "(56.750000, 75.333330)", "recclass": "L5", "name": "Khmelevka", "reclat": "56.75", "index": "474", "fall": "Fell", "mass": "6109.0", "year": "01/01/1929 12:00:00 AM", "reclong": "75.33333"}, {"GeoLocation": "(25.100000, 81.533330)", "recclass": "L3.6", "name": "Khohar", "reclat": "25.1", "index": "475", "fall": "Fell", "mass": "9700.0", "year": "01/01/1910 12:00:00 AM", "reclong": "81.53333"}, {"GeoLocation": "(16.000000, 36.000000)", "recclass": "Aubrite", "name": "Khor Temiki", "reclat": "16.0", "index": "476", "fall": "Fell", "mass": "3200.0", "year": "01/01/1932 12:00:00 AM", "reclong": "36.0"},